stop_id,stop_code,stop_name,stop_lat,stop_lon
86,86,50th St @ Palm River Rd,27.943531,-82.401742
403,403,Nebraska Av @ Twiggs St,27.95167,-82.450902
404,404,Nebraska Ave @ Cass St,27.954082,-82.451152
407,407,Nebraska Ave @ Estelle St,27.958461,-82.451168
424,424,Nebraska Av @ Chelsea St,27.984831,-82.45105
439,439,Nebraska Av @ Lambright St,28.006817,-82.45123
447,447,Nebraska Av @ Sitka St,28.021044,-82.451181
453,453,Nebraska Av @ Yukon St,28.029169,-82.451172
462,462,Nebraska Av @ Bougainvillea Av,28.043437,-82.451109
469,469,Nebraska Av @ 124th Av,28.059963,-82.451019
478,478,Nebraska Av @ 124th Av,28.060117,-82.451181
484,484,Nebraska Ave @ 109th Ave,28.047015,-82.451308
487,487,Nebraska Av @ Bougainvillea Av,28.043331,-82.451321
495,495,Nebraska Av @ Yukon St,28.029648,-82.451334
499,499,Nebraska Ave @ Juneau St,28.024106,-82.451365
501,501,Nebraska Av @ Sitka St,28.021434,-82.451356
509,509,Nebraska Av @ Lambright St,28.006651,-82.451386
522,522,Nebraska Av @ Osborne Av,27.988394,-82.451249
524,524,Nebraska Av @ Chelsea St,27.985498,-82.451238
526,526,Nebraska Ave @ MLK Blvd,27.98183,-82.451231
538,538,Nebraska Ave @ Palm Ave,27.96284,-82.451321
546,546,Nebraska Av @ Cass St,27.953751,-82.451332
551,551,Florida Ave @ Palm Ave,27.962111,-82.459397
553,553,Florida Ave @ Frances Ave,27.964847,-82.459398
554,554,Florida Ave @ Columbus Dr,27.967272,-82.45939
556,556,Florida Ave @ Floribraska Ave,27.970771,-82.459391
558,558,Florida Ave @ 26th Ave,27.97442,-82.459327
559,559,Florida Ave @ Lake Ave,27.977765,-82.459373
562,562,Florida Ave @ M L King Jr Blvd,27.981088,-82.459375
563,563,Florida Ave @ Ida St,27.98256,-82.459376
564,564,Florida Ave @ Chelsea St,27.985,-82.459334
566,566,Florida Ave @ Osborne Ave,27.98817,-82.459339
569,569,Florida Ave @ Wilder Ave,27.992033,-82.459338
572,572,Florida Ave @ Comanche Ave,27.99775,-82.459317
574,574,Florida Ave @ Idlewild Ave,28.00157,-82.459436
575,575,Florida Ave @ Hanna Ave,28.00328,-82.459388
580,580,Florida Ave @ Sligh Ave,28.011166,-82.459517
582,582,Florida Ave @ Hamilton Ave,28.014273,-82.459446
583,583,Florida Ave @ Broad St,28.016053,-82.45946
585,585,Florida Ave @ Kirby St,28.017612,-82.459472
587,587,Florida Ave @ Bird St,28.022262,-82.459462
588,588,Florida Ave @ Waters Ave,28.023895,-82.459346
590,590,Florida Ave @ Yukon St,28.028871,-82.459361
591,591,Florida Ave @ Busch Blvd,28.033249,-82.459637
592,592,Florida Ave @ Floriland Ave,28.037497,-82.459366
593,593,Florida Ave @ Linebaugh Ave,28.040685,-82.45929
595,595,Florida Ave @ Bougainvillea Ave,28.043449,-82.459321
596,596,Florida Ave @ 109th Ave,28.047111,-82.459308
597,597,Florida Ave @ Fowler Ave,28.055215,-82.459265
598,598,Florida Ave @ Fowler Ave,28.055006,-82.459511
599,599,Florida Ave @ 122nd Ave,28.057988,-82.459306
600,600,Florida Ave @ 124th Ave,28.059998,-82.459316
601,601,Florida Ave @ 127th Ave,28.062348,-82.459304
619,619,Florida Av @ Wildwood St,28.075255,-82.459528
624,624,Florida Av @ Fletcher Av,28.071354,-82.459507
626,626,Florida Ave @ 131st Ave,28.065795,-82.459451
629,629,Florida Ave @ 122nd Ave,28.057301,-82.459482
632,632,Florida Ave @ 109th Ave,28.047462,-82.459507
633,633,Florida Ave @ Bougainvillea Ave,28.043811,-82.459586
634,634,Florida Ave @ Linebaugh Ave,28.040205,-82.459546
640,640,Florida Ave @ Bird St,28.022767,-82.459643
643,643,Florida Ave @ Kirby St,28.017719,-82.459585
644,644,Florida Ave @ Broad St,28.016383,-82.459513
646,646,Florida Ave @ Hamilton Ave,28.014405,-82.459597
647,647,Florida Ave @ Sligh Ave,28.010948,-82.459597
649,649,Florida Ave @ Knollwood St,28.008105,-82.459579
652,652,Florida Ave @ Hanna Ave,28.003481,-82.459541
653,653,Florida Ave @ Idlewild Ave,28.001665,-82.459484
656,656,Florida Ave @ Hillsborough Ave,27.995416,-82.459505
657,657,Florida Ave @ Wilder Ave,27.992605,-82.459491
661,661,22nd St @ 17th Av,27.96772,-82.434662
662,662,22nd St @ 19th Av,27.968716,-82.434642
663,663,22nd St @ 21st Av,27.970229,-82.434672
664,664,22nd St @ 23rd Av,27.972249,-82.434662
665,665,22nd St @ 26th Av,27.974459,-82.434672
667,667,22nd St @ Lake Av,27.97733,-82.434682
668,668,22nd St @ M L King Jr Blvd,27.981308,-82.434744
670,670,22nd St @ North Bay St,27.983189,-82.434641
671,671,22nd St @ Chelsea St,27.984892,-82.434661
672,672,22nd St @ Cayuga St,27.986431,-82.434651
674,674,22nd St @ Mc Berry St,27.993595,-82.434671
675,675,22nd St @ Hillsborough Av,27.996593,-82.43463
677,677,22nd St @ Henry Ave,27.999418,-82.43462
680,680,22nd St @ Hanna Av,28.003231,-82.43464
682,682,22nd St @ Diana St,28.00689,-82.434629
683,683,22nd St @ Sligh Av,28.010376,-82.434599
685,685,22nd St @ Busch Blvd,28.033278,-82.434547
687,687,22nd St @ Okara Rd,28.036891,-82.434547
688,688,22nd St @ Linebaugh Av,28.03968,-82.434557
690,690,22nd St @ Bougainvillea Av,28.043411,-82.434536
691,691,22nd St @ 109th Av,28.047024,-82.434526
692,692,22nd St @ 111th Av,28.049016,-82.434526
695,695,22nd St @ Fowler Av,28.053675,-82.434559
698,698,22nd St @ 131st Av,28.065299,-82.434529
703,703,22nd St @ Fletcher Av,28.068573,-82.434485
706,706,22nd St @ Aimee Ct,28.077683,-82.434504
710,710,22nd St @ Rae Ct,28.078661,-82.434555
717,717,22nd St @ 131st Av,28.064989,-82.434718
720,720,22nd St @ 115th Av,28.051947,-82.434624
722,722,22nd St @ 111th Av,28.049577,-82.434708
723,723,22nd St @ 109th Av,28.047312,-82.434633
725,725,22nd St @ Bougainvillea Av,28.043693,-82.434643
727,727,22nd St @ Diana St,28.007188,-82.434802
731,731,22nd St @ Henry Av,27.99981,-82.434753
732,732,22nd St @ Hillsborough Av,27.996819,-82.434786
733,733,22nd St @ Giddens Av,27.995398,-82.434779
734,734,22nd St @ Shadowlawn Av,27.993441,-82.434853
737,737,22nd St @ Osborne Av,27.988968,-82.434775
738,738,22nd St @ Chelsea St,27.985279,-82.434773
743,743,22nd St @ 31st Av,27.978556,-82.434807
744,744,22nd St @ Lake Av,27.977283,-82.43481
765,765,15th St @ 17th Av,27.967327,-82.442925
767,767,15th St @ 21st Av,27.970374,-82.442933
769,769,15th St @ 26th Av,27.974069,-82.442854
771,771,15th St @ Rodney St,27.977402,-82.442814
775,775,15th St @ Chelsea St,27.985019,-82.442855
777,777,15th St @ Osborne Av,27.988623,-82.442845
779,779,15th St @ Ellicott St,27.991186,-82.442855
781,781,15th St @ Frierson Av,27.994129,-82.442855
782,782,15th St @ Hillsborough Av,27.995588,-82.442845
791,791,15th St @ Poinsettia Ave,28.041627,-82.442797
792,792,15th St @ Bougainvillea Ave,28.043429,-82.442797
793,793,15th St @ Charm Ln,28.045638,-82.442787
794,794,15th St @ 109th Ave,28.047562,-82.44284
797,797,15th St @ Fowler Ave,28.053987,-82.442767
799,799,15th St @ 122nd Ave,28.057863,-82.442757
801,801,15th St @ 127th Ave,28.061802,-82.442757
806,806,15th St @ 131st Ave,28.06536,-82.442747
807,807,15th St @ 127th Ave,28.062077,-82.442864
808,808,15th St @ 124th Ave,28.060313,-82.44287
809,809,15th St @ 122nd Ave,28.058403,-82.442881
810,810,15th St @ Fowler Ave,28.053306,-82.442921
813,813,15th St @ 113th Ave,28.051046,-82.442909
815,815,15th St @ Poinsettia Ave,28.041864,-82.44292
816,816,15th St @ Seneca Ave,28.045873,-82.442916
817,817,15th St @ Bougainvillea Ave,28.043723,-82.442919
818,818,15th St @ 109th Ave,28.047349,-82.442913
828,828,15th St @ Frierson Av,27.994474,-82.443028
830,830,15th St @ Ellicott St,27.991313,-82.443048
832,832,15th St @ Osborne Av,27.988881,-82.44298
834,834,15th St @ Chelsea St,27.984847,-82.442976
836,836,15th St @ M L King Jr Blvd,27.981725,-82.442996
837,837,15th St @ 33st Av,27.980527,-82.442936
838,838,Busch Blvd @ Busch Plaza,28.032765,-82.402543
839,839,Busch Blvd @ Temple St,28.032741,-82.407279
840,840,Busch Blvd @ 46th St,28.032732,-82.409661
841,841,Busch Blvd @ 42nd St,28.032734,-82.411901
842,842,Busch Blvd @ 40th St,28.032724,-82.41583
847,847,Busch Blvd @ 26th St,28.032674,-82.430231
849,849,Busch Blvd @ 22nd St,28.032698,-82.433939
851,851,Busch Blvd @ 19th St,28.032667,-82.437362
852,852,Busch Blvd @ Elmer St,28.032695,-82.439792
855,855,Busch Blvd @ 12th St,28.032907,-82.446895
857,857,Busch Blvd @ Ola Av,28.03304,-82.463815
858,858,Busch Blvd @  N Boulevard,28.033259,-82.467549
859,859,Busch Blvd @ Florida Ave,28.032841,-82.459964
862,862,Busch Blvd @ 12th St,28.032644,-82.447265
867,867,Busch Blvd @ 22nd St,28.032391,-82.43478
869,869,Busch Blvd @ 26th St,28.032408,-82.43022
874,874,Busch Blvd @ 37th Av,28.032452,-82.417887
878,878,Busch Blvd @ 46th St,28.032459,-82.410205
879,879,Busch Blvd @ Temple Av,28.032458,-82.407043
881,881,Fletcher Ave @ Bruce B Downs Blvd,28.069271,-82.428087
886,886,Fletcher Ave @ 19th St,28.069335,-82.438439
887,887,Fletcher Ave @ Revere Landing Dr,28.069255,-82.440071
889,889,Fletcher Ave @ Cecelia St,28.069413,-82.445707
890,890,Fletcher Ave @ 12th St,28.069333,-82.446817
893,893,Fletcher Ave @ Summit Ave,28.069371,-82.452996
894,894,Fletcher Ave @ Central Ave,28.069388,-82.456036
898,898,Fletcher Av @ Ola Av,28.069403,-82.463249
899,899,Fletcher Av @  N Boulevard,28.069348,-82.467274
900,900,Fletcher Av @ Rome Av,28.069443,-82.47535
910,910,Fletcher Av @ Reseda Ct,28.06584,-82.49302
913,913,Fletcher Av @ Paddock Av,28.065716,-82.490289
917,917,Fletcher Av @ Armenia Av,28.066084,-82.483617
920,920,Fletcher Av @ Rome Av,28.069306,-82.47605
921,921,Fletcher Av @ Forest Hills Dr,28.069303,-82.473856
923,923,Fletcher Av @ N Boulevard,28.069082,-82.467876
924,924,Fletcher Av @ Ola Av,28.069259,-82.46362
928,928,Fletcher Ave @ Summit Ave,28.069175,-82.45341
933,933,Fletcher Ave @ 15th St,28.069076,-82.442299
935,935,Fletcher Ave @ 19th St,28.069127,-82.438868
938,938,Fletcher Ave @ Livingston Ave East,28.069132,-82.429987
951,951,N Boulevard @ Hollywood St,28.019437,-82.467681
953,953,N Boulevard @ Sitka St,28.021955,-82.467672
954,954,N Boulevard @ Waters Ave,28.025034,-82.467632
956,956,N Boulevard @ Yukon St,28.028855,-82.467644
958,958,N Boulevard @ Busch Blvd,28.032025,-82.467817
959,959,N Boulevard @ Busch Blvd,28.032332,-82.467767
1013,1013,N Boulevard @ Yukon St,28.029072,-82.467836
1014,1014,N Boulevard @ Waters Av,28.025052,-82.467744
1015,1015,N Boulevard @ Sitka St,28.021873,-82.467854
1029,1029,N Boulevard @ Cypress St,27.952612,-82.468536
1035,1035,Himes Av @ Columbus Dr,27.967159,-82.501354
1037,1037,Himes Av @ Leroy St,27.972087,-82.501361
1038,1038,Himes Av @ Tampa Bay Blvd,27.973689,-82.501372
1046,1046,Himes Av @ Hillsborough Av,27.99564,-82.500879
1047,1047,Himes Av @ Idlewild Av,28.001728,-82.500792
1048,1048,Himes Av @ Sunrise Villas Ct,28.005061,-82.500764
1049,1049,Himes Av @ Lambright St,28.006863,-82.500755
1051,1051,Himes Av @ Sligh Av,28.010712,-82.500717
1053,1053,Himes Av @ Hamilton St,28.014325,-82.500679
1055,1055,Himes Av @ Townhouse Ct,28.018708,-82.500652
1056,1056,Himes Av @ Sitka St,28.021343,-82.500623
1058,1058,Himes Av @ Waters Av,28.025264,-82.500657
1061,1061,Himes Av @ Kenyon Av,28.032472,-82.500642
1064,1064,Himes Av @ Humphrey St,28.028475,-82.500805
1065,1065,Himes Av @ Kenyon Av,28.032529,-82.500801
1068,1068,Himes Av @ Waters Av,28.025735,-82.500801
1071,1071,Himes Av @ Townhouse Ct,28.01888,-82.500824
1075,1075,Himes Av @ Sligh Av,28.010865,-82.500889
1077,1077,Himes Av @ Lambright St,28.007515,-82.500928
1078,1078,Himes Av @ Idlewild Av,28.002036,-82.500964
1081,1081,Himes Av @ Hillsborough Av,27.996249,-82.501021
1082,1082,Himes Av @ Hillsborough Av,27.995751,-82.501051
1085,1085,Himes Av @ M L King Blvd,27.982586,-82.501429
1086,1086,Himes Ave @ M L King Jr Blvd,27.981914,-82.501212
1088,1088,Himes Av @ M L King Jr Blvd,27.980952,-82.501567
1097,1097,Himes Av @ Spruce St,27.959659,-82.501514
1104,1104,M L King Jr Blvd @ Lake Av,27.981499,-82.403075
1107,1107,M L King Jr Blvd @ 39th St,27.981529,-82.416124
1108,1108,M L King Jr Blvd @ 37th St,27.981524,-82.418155
1109,1109,M L King Jr Blvd @ 36th St,27.981524,-82.419785
1110,1110,M L King Jr Blvd @ 34th St,27.981553,-82.422126
1111,1111,M L King Jr Blvd @ 31st St,27.981552,-82.42531
1113,1113,M L King Jr Blvd @ 26th St,27.981531,-82.430488
1114,1114,M L King Jr Blvd @ 24th St,27.981544,-82.432597
1116,1116,M L King Jr Blvd @ 20th St,27.981553,-82.43741
1119,1119,M L King Jr Blvd @ 15th St,27.98156,-82.44273
1120,1120,M L King Jr Blvd @ 13th St,27.981563,-82.444863
1121,1121,M L King Jr Blvd @ 12th St,27.981572,-82.446932
1122,1122,M L King Jr Blvd @ 10th St,27.981553,-82.449062
1124,1124,M L King Jr Blvd @ Central Av,27.98159,-82.455079
1125,1125,M L King Jr Blvd @ Branch Av,27.981588,-82.45719
1129,1129,M L King Jr Blvd @ Highland Av,27.981588,-82.462436
1130,1130,M L King Jr Blvd @ Lynn Av,27.981593,-82.46529
1131,1131,M L King Jr Blvd @ N Boulevard,27.981639,-82.467422
1133,1133,M L King Jr Blvd @ Myrtle Ave,27.981619,-82.469571
1134,1134,M L King Jr Blvd @ Poplar Ave,27.981627,-82.471543
1135,1135,M L King Jr Blvd @ Riverside Dr,27.981632,-82.473047
1136,1136,M L King Jr Blvd @ 1913 M L King Jr Blvd,27.981342,-82.479417
1140,1140,M L King Jr Blvd @ Tampania Av,27.981384,-82.48629
1143,1143,MLK Jr Blvd @ Dale Mabry Hwy,27.981574,-82.505952
1149,1149,M L King Jr Blvd @ Gomez Av,27.981175,-82.491601
1150,1150,M L King Jr Blvd @ Habana Av E/S,27.981158,-82.488107
1152,1152,M L King Jr Blvd @ Armenia Ave,27.981151,-82.484906
1153,1153,M L King Blvd @ Armenia Ave E/S,27.981151,-82.484177
1154,1154,M L King Jr Blvd @ Howard Ave,27.981223,-82.482443
1156,1156,M L King Jr Blvd @ St Isabel St,27.98118,-82.479012
1157,1157,M L King Jr Blvd @ Poplar Ave,27.981482,-82.471791
1158,1158,M L King Jr Blvd @ Myrtle Ave,27.981464,-82.469714
1160,1160,M L King Jr Blvd @ Lynn Av,27.981515,-82.465738
1161,1161,M L King Jr Blvd @ Highland Av,27.981505,-82.462247
1163,1163,M L King Jr Blvd @ Suwanee Av,27.981376,-82.458108
1165,1165,M L King Jr Blvd @ Central Av,27.98135,-82.455586
1166,1166,M L King Jr Blvd @ Nebraska Av,27.981332,-82.451393
1167,1167,M L King Jr Blvd @ 10th St,27.981341,-82.449458
1168,1168,M L King Jr Blvd @ 12th St,27.981369,-82.44722
1169,1169,M L King Jr  Blvd @ 13th St,27.981378,-82.445063
1170,1170,M L King Jr Blvd @ 15th St,27.981314,-82.443148
1171,1171,M L King Jr Blvd @ 17th St,27.981278,-82.440211
1178,1178,M L King Jr Blvd @ 31st St,27.98135,-82.425394
1179,1179,M L King Jr Blvd @ 34th St,27.98134,-82.42269
1180,1180,M L King Jr Blvd @ 35th St,27.981322,-82.42033
1181,1181,M L King Jr Blvd @ 37th St,27.981331,-82.418365
1185,1185,M L King Jr Blvd @ 50th St,27.98139,-82.402525
1186,1186,M L King Jr Blvd @ Phillips St,27.981389,-82.399639
1188,1188,M L King Jr Blvd @ 54th St,27.981396,-82.395456
1190,1190,M L King Jr Blvd @ Carroway St,27.981403,-82.391323
1199,1199,Hillsborough Av @ 48th St,27.996214,-82.403392
1200,1200,Hillsborough Av @ 46th St,27.996189,-82.406637
1202,1202,Hillsborough Av @ 43rd St,27.996192,-82.409904
1203,1203,Hillsborough Av @ 40th St,27.996146,-82.413591
1204,1204,Hillsborough Av @ 37th St,27.996147,-82.4182
1207,1207,Hillsborough Av @ 34th St,27.996157,-82.42215
1209,1209,Hillsborough Av @ 30th St,27.996157,-82.426263
1212,1212,Hillsborough Av @ 22nd St,27.996131,-82.4346
1214,1214,Hillsborough Av @ 19th St,27.996122,-82.438388
1215,1215,Hillsborough Av @ 15th St,27.996122,-82.442724
1217,1217,Hillsborough Av @ 11th St,27.996131,-82.447434
1219,1219,Hillsborough Av @ Central Av,27.996243,-82.45561
1220,1220,Hillsborough Av @ Florida Av,27.996299,-82.460303
1225,1225,Hillsborough Av @ Habana Av,27.99621,-82.488429
1227,1227,Hillsborough Av @ MacDill Av,27.996199,-82.49242
1228,1228,Hillsborough Av @ Lincoln Av,27.996195,-82.497458
1233,1233,Hillsborough Av @ Lois Av (Hooters),27.996267,-82.514812
1234,1234,Hillsborough Av @4427 Hesperides St,27.996309,-82.519859
1238,1238,Hillsborough Av @ Hoover Blvd,27.99642,-82.534204
1240,1240,Hillsborough @ 5555 Crown Bowling,27.996432,-82.537866
1241,1241,Hillsborough Ave @ Benjamin Rd,27.996469,-82.540496
1242,1242,Hillsborough Av @ Beaumont Ctr Blvd,27.996524,-82.548751
1244,1244,Hillsborough Av @ Golden Dr,27.99662,-82.553584
1245,1245,Hillsborough Av @ Sawyer Rd,27.996639,-82.556358
1246,1246,Hillsborough Av @ Hanley Rd,27.996691,-82.563689
1248,1248,Hillsborough Av @ Ambassador Dr,27.996705,-82.565084
1249,1249,Hillsborough Av @ Town 'N Country,27.996726,-82.568107
1251,1251,Hillsborough Av @ Webb Rd,27.996777,-82.574756
1254,1254,Hillsborough Av @ Sheldon Rd,27.996887,-82.581503
1257,1257,Hillsborough Av @ Webb Rd,27.996566,-82.575417
1259,1259,Hillsborough Av @ Town 'N Country,27.996518,-82.569248
1261,1261,Hillsborough Av @ Kelly Rd,27.996483,-82.564521
1269,1269,Hillsborough Av @ Hoover Blvd,27.996147,-82.533345
1274,1274,Hillsborough Av @ Lois Av,27.995979,-82.512933
1277,1277,Hillsborough Av @ Himes Av,27.995939,-82.500511
1278,1278,Hillsborough Av @ Lincoln Av,27.995952,-82.49709
1280,1280,Hillsborough Av @ MacDill Av,27.996036,-82.492177
1282,1282,Hillsborough Av @ Habana Av,27.996081,-82.488218
1283,1283,Hillsborough Av @ Armenia Av,27.996022,-82.484752
1284,1284,Hillsborough Av @ Howard Av,27.99595,-82.481581
1285,1285,Hillsborough Av @ Mendenhall Dr,27.995924,-82.478877
1287,1287,Hillsborough Av @ Rome Av,27.995916,-82.476496
1289,1289,Hillsborough Av @ Florida Av,27.995975,-82.459752
1290,1290,Hillsborough Av @ Central Av,27.99593,-82.455558
1291,1291,Hillsborough Av @ Nebraska Av,27.996067,-82.450645
1294,1294,Hillsborough Av @ 15th St,27.995991,-82.443133
1295,1295,Hillsborough Av @ 19th St,27.995994,-82.43905
1297,1297,Hillsborough Av @ 22nd St,27.99599,-82.434999
1298,1298,Hillsborough Av @ 30th St,27.995999,-82.426632
1301,1301,Hillsborough Av @ 32nd St,27.995997,-82.424601
1302,1302,Hillsborough Av @ 34th St,27.996,-82.422638
1304,1304,Hillsborough Av @ 37th St,27.996004,-82.418513
1305,1305,Hillsborough Av @ 40th St WS,27.996056,-82.41436
1306,1306,Hillsborough Av @ 40th St ES,27.996001,-82.413184
1307,1307,Hillsborough Av @ 43rd St,27.995998,-82.410105
1310,1310,Hillsborough Av @ 46th St,27.99597,-82.407013
1314,1314,Hillsborough Av @ Walton Way,27.996024,-82.380689
1316,1316,HillsboroughAv@SuncoastC,27.996031,-82.375938
1317,1317,Hillsborough Av @ Orient Rd,27.996029,-82.373507
1360,1360,Westshore Blvd @ Gray St,27.948711,-82.524018
1370,1370,Westshore Blvd @ Gray St,27.948421,-82.524362
1412,1412,Westshore Blvd @ Loughman St,27.863489,-82.52699
1414,1414,Westshore Blvd @ Bradley St,27.860932,-82.527025
1417,1417,Waters Av @ 17th St,28.025401,-82.440323
1419,1419,Waters Av @ Mulberry St,28.025345,-82.443944
1421,1421,Waters Av @ 12th St,28.025329,-82.44718
1422,1422,Waters Av @ Edison Av,28.025395,-82.468523
1423,1423,Waters Av @ El Portal Dr,28.025388,-82.469545
1424,1424,Waters Av @ Willow Av,28.025386,-82.471543
1425,1425,Waters Av @ Orleans Av,28.025386,-82.473176
1426,1426,Waters Av @ Rome Av,28.025367,-82.475728
1427,1427,Waters Av @ Jones Av,28.025383,-82.478018
1429,1429,Waters Av @ Armenia Av,28.025439,-82.484001
1430,1430,Waters Av @ Habana Av,28.025397,-82.488689
1431,1431,Waters Av @ Twin Lakes Blvd,28.025501,-82.492348
1433,1433,Waters Av @ Sevilla Dr,28.025522,-82.498195
1435,1435,Waters Av @ Dale Mabry Hwy E/S,28.025579,-82.503707
1437,1437,Waters Av @ Grady Av,28.025575,-82.5088
1438,1438,Waters Av @ Lake Melena Way,28.025566,-82.510896
1439,1439,Waters Av @ Lois Av,28.025568,-82.512898
1440,1440,Waters Av @ Camden St,28.025573,-82.514478
1441,1441,Waters Av @ Manhattan Av,28.025578,-82.516945
1442,1442,Waters Av @ Woodland Corporate Blvd,28.025576,-82.521572
1447,1447,Waters Av @ Florida Mining Blvd N/S,28.025701,-82.53325
1448,1448,Waters Av @ Anderson Rd,28.025761,-82.537978
1450,1450,Waters Av @ Benjamin Rd,28.025738,-82.541523
1451,1451,Waters Av @ Henderson Rd,28.025822,-82.55026
1453,1453,Waters Av @ Twelve Oaks Blvd,28.025839,-82.551385
1454,1454,Waters Av @ J R Manor Dr,28.02585,-82.554502
1457,1457,Waters Av @ Hanley Rd,28.025999,-82.562156
1460,1460,Waters Ave @ Pinehurst Dr,28.026115,-82.571033
1467,1467,Waters Av @ Rustic Dr,28.025694,-82.559562
1468,1468,Waters Av @ Twelve Oaks Blvd,28.025576,-82.551708
1472,1472,Waters Av @ Oak Trace Way,28.025551,-82.549449
1473,1473,Waters Av @ Sitka St,28.025535,-82.547159
1475,1475,Waters Av @ Anderson Rd,28.02549,-82.537998
1476,1476,Waters Av @ Uhaul Storage,28.025456,-82.535029
1480,1480,Waters Av @ Savarese Blvd,28.025415,-82.530337
1481,1481,Waters Av @ Woodland Center Blvd,28.025357,-82.524419
1482,1482,Waters Av @ Woodland Corporate Blvd,28.025358,-82.522109
1484,1484,Waters Av @ Manhattan Av,28.025335,-82.517427
1485,1485,Waters Av @ Thatcher Av,28.025327,-82.514914
1486,1486,Waters Av @ Lois Av,28.02532,-82.513252
1487,1487,Waters Av @ Grady Av,28.025332,-82.508794
1489,1489,Waters Av @ Dale Mabry Hwy,28.025262,-82.503899
1490,1490,Waters Av @ Himes Av,28.0253,-82.501042
1491,1491,Waters Av @ Sevilla Dr,28.025302,-82.498407
1492,1492,Waters Av @ Lago Vista Dr,28.025258,-82.495235
1493,1493,Waters Av @ Palma Vista Lane,28.02525,-82.492682
1494,1494,Waters Av @ Habana Av,28.025171,-82.488598
1495,1495,Waters Av @ Armenia Av,28.025209,-82.484545
1496,1496,Waters Av @ Saulray St,28.025219,-82.481474
1497,1497,Waters Av @ Fremont Av,28.02522,-82.478799
1499,1499,Waters Av @ Rome Av,28.025221,-82.476094
1500,1500,Waters Av @ Orleans Av,28.025222,-82.473378
1502,1502,Waters Av @ El Portal Dr,28.025295,-82.469658
1504,1504,Waters Av @ 14th St,28.02521,-82.444336
1520,1520,Sligh Av @ Rowlett Park Dr,28.01072,-82.429928
1537,1537,Sligh Av @ Willow Av,28.010815,-82.472319
1576,1576,Sligh Av @ 30th St,28.010626,-82.426682
1583,1583,Sligh Av @ 53rd St,28.010613,-82.397953
1591,1591,40th St @ Osborne Av,27.989177,-82.413983
1592,1592,40th St @ Ellicott St,27.990364,-82.413977
1594,1594,40th St @ Hillsborough Av,27.993199,-82.413924
1597,1597,40th St @ Idlewild Ave,28.000906,-82.413922
1598,1598,40th St @ Paris St,28.00252,-82.413957
1601,1601,40th St @ Diana St,28.006823,-82.413962
1607,1607,40th St @ Riverhills Dr,28.021072,-82.414699
1610,1610,40th St @ Bird St,28.023278,-82.415487
1611,1611,40th St @ Regnas Av,28.025135,-82.416257
1612,1612,40th St @ Seward St,28.027163,-82.416236
1615,1615,40th St @ Busch Blvd,28.032415,-82.416225
1616,1616,McKinley Dr @ Busch Blvd,28.033855,-82.416457
1617,1617,McKinley Dr @ Linebaugh Av,28.039471,-82.416137
1618,1618,Mckinley Dr @ Bougainvillea Av,28.044336,-82.416145
1622,1622,Mckinley Dr @ Bougainvillea Av,28.044154,-82.416414
1630,1630,40th St @ Seward St,28.027444,-82.41653
1631,1631,40th St @ Regnas Av,28.02499,-82.4165
1634,1634,40th St @ Hanlon St,28.018433,-82.414394
1638,1638,40th St @ Norfolk St,28.011669,-82.415329
1639,1639,40th St @ River Grove Dr,28.00714,-82.414296
1640,1640,40th St @ Fern St,28.005565,-82.414256
1644,1644,40th St @ Powhattan Av,27.999108,-82.414258
1645,1645,40th St @ Hillsborough Av,27.995033,-82.414268
1648,1648,40th St @ Ellicott St,27.990768,-82.41421
1649,1649,40th St @ Osborne Av,27.988999,-82.414214
1656,1656,30th St @ Hillsborough Ave,27.996357,-82.426445
1658,1658,30th St @ Powhatan Av,27.999155,-82.426374
1659,1659,30th St @ Idlewild Av,28.00112,-82.426394
1661,1661,30th St @ Hanna Av,28.003203,-82.426414
1664,1664,30th St @ Diana St,28.006817,-82.426413
1665,1665,30th St @ Pocahontas Av,28.008628,-82.426393
1666,1666,30th St @ Sligh Av,28.01052,-82.426372
1668,1668,30th St @ Busch Blvd,28.031954,-82.426321
1669,1669,30th St @ Annie St,28.036023,-82.426126
1670,1670,30th St @ Bougainvillea  Av,28.043362,-82.426114
1680,1680,30th St @ 113th Av,28.051045,-82.426262
1681,1681,30th St @ 109th Av,28.047389,-82.426315
1682,1682,30th St @ Bougainvillea Av,28.043801,-82.426278
1685,1685,30th St @ Poinsettia Av,28.041227,-82.426273
1688,1688,30th St @ Annie St,28.036449,-82.426286
1689,1689,30th St @ Busch Blvd,28.032145,-82.426491
1692,1692,30th St @ Diana Ct,28.007161,-82.426531
1695,1695,30th St @ Hanna Av,28.003593,-82.426606
1697,1697,30th St @ Henry Av,27.999502,-82.426527
1700,1700,30th St @ Hillsborough Av N/S,27.996329,-82.426557
1708,1708,Dale Mabry Hwy @ Interbay Blvd,27.872389,-82.50618
1713,1713,Dale Mabry Hwy @ Bay Ave,27.878975,-82.506327
1715,1715,Dale Mabry Hwy @ Wisconsin Ave,27.881865,-82.506309
1716,1716,Dale Mabry Hwy @ Oklahoma Ave,27.883767,-82.50627
1718,1718,Dale Mabry Hwy @ Rogers Ave,27.886675,-82.506232
1720,1720,Dale Mabry Hwy @ Ballast Point Blvd,27.889882,-82.506174
1722,1722,Dale Mabry Hwy @ Gandy Blvd,27.894448,-82.506127
1726,1726,Dale Mabry Hwy @ El Prado Blvd,27.911433,-82.506009
1728,1728,Dale Mabry Hwy @ Corona St,27.913978,-82.50595
1729,1729,Dale Mabry Hwy @ San Luis St,27.9155,-82.505931
1731,1731,Dale Mabry Hwy @ San Juan St,27.91829,-82.505882
1732,1732,Dale Mabry Hwy @ Bay to Bay Blvd,27.91944,-82.505863
1733,1733,Dale Mabry Hwy @ Barcelona St,27.921741,-82.505845
1736,1736,Dale Mabry Hwy @ Neptune St,27.930718,-82.50572
1738,1738,Dale Mabry Hwy @ Jetton Av,27.932665,-82.505681
1739,1739,Dale Mabry Hwy @ Inman Av,27.935283,-82.505663
1740,1740,Dale Mabry Hwy @ Swann Av,27.937421,-82.505654
1741,1741,Dale Mabry Hwy @ Dale Av,27.939277,-82.505626
1742,1742,Dale Mabry Hwy @ Azeele St,27.941026,-82.505627
1743,1743,Dale Mabry Hwy @ Cleveland St,27.942837,-82.505598
1744,1744,Dale Mabry Hwy @ Kennedy Blvd,27.944521,-82.505604
1745,1745,Dale Mabry Hwy @ North B St,27.947172,-82.505545
1746,1746,Dale Mabry Hwy @ Gray St,27.948867,-82.505536
1748,1748,Dale Mabry Hwy @ Cypress St,27.951912,-82.5055
1749,1749,Dale Mabry Hwy @ Chestnut St,27.958316,-82.505468
1751,1751,Dale Mabry Hwy @ Cherry St,27.961525,-82.505435
1754,1754,Dale Mabry Hwy @ Lake Carroll Way,28.043554,-82.504562
1755,1755,Dale Mabry Hwy @ Floyd  Rd,28.04781,-82.504271
1756,1756,Dale Mabry Hwy @ 11007,28.049276,-82.504196
1757,1757,Dale Mabry @ Hudson Ln @ Taco Bell,28.051043,-82.504041
1762,1762,Dale Mabry Hwy @ Fletcher Av,28.06639,-82.504905
1763,1763,Dale Mabry Hwy @ Moran Rd,28.068173,-82.505463
1764,1764,Dale Mabry Hwy @ Handy Rd,28.075196,-82.506633
1766,1766,Dale Mabry Hwy @ Bearss Av,28.082038,-82.506002
1767,1767,Dale Mabry Hwy @ Bearss Av,28.086913,-82.504002
1771,1771,Dale Mabry Hwy @ N Lakeview Dr (1st),28.10425,-82.502157
1774,1774,Dale Mabry Hwy @ Mapledale Blvd,28.098692,-82.502451
1775,1775,Dale Mabry Hwy @ Mapledale Blvd,28.098869,-82.502171
1777,1777,Dale Mabry @ Carrollwood Springs BL,28.088733,-82.503636
1778,1778,Dale Mabry Hwy @  Ehrlich Rd(15042),28.086791,-82.504429
1779,1779,Dale Mabry @ Ehrlich @ Bank United,28.083176,-82.505972
1796,1796,Dale Mabry Hwy @ Palmetto St,27.964285,-82.505643
1797,1797,Dale Mabry Hwy @ Cherry St,27.961223,-82.505675
1798,1798,Dale Mabry Hwy @ Spruce St,27.958866,-82.505709
1799,1799,Dale Mabry Hwy @ Laurel St,27.955577,-82.505709
1800,1800,Dale Mabry Hwy @ Midtown Dr,27.952841,-82.50577
1803,1803,Dale Mabry Hwy @ Gray St,27.948947,-82.505781
1804,1804,Dale Mabry Hwy @ North B St,27.946791,-82.505793
1805,1805,Dale Mabry Hwy @ Roland St,27.944025,-82.505782
1806,1806,Dale Mabry Hwy @ Cleveland St,27.943063,-82.50578
1807,1807,Dale Mabry Hwy @ Azeele St,27.94127,-82.505799
1808,1808,Dale Mabry Hwy @ Dale Av,27.939531,-82.505808
1809,1809,Dale Mabry Hwy @ Swann Av,27.93775,-82.505824
1810,1810,Dale Mabry Hwy @ Inman Av,27.935853,-82.505835
1812,1812,Dale Mabry Hwy @ Neptune St,27.930434,-82.505903
1813,1813,Dale Mabry Hwy @ Angeles St,27.927606,-82.505919
1815,1815,Dale Mabry Hwy @ San Carlos St,27.924018,-82.505965
1816,1816,Dale Mabry Hwy @ Barcelona St,27.921928,-82.506002
1817,1817,Dale Mabry Hwy @ Bay to Bay Blvd,27.920009,-82.506022
1818,1818,Dale Mabry Hwy @ San Juan St,27.918512,-82.506036
1820,1820,Dale Mabry Hwy @ San Luis St,27.915722,-82.50608
1821,1821,Dale Mabry Hwy @ Corona St,27.914038,-82.506107
1822,1822,Dale Mabry Hwy @ El Prado Blvd,27.911767,-82.506163
1823,1823,Dale Mabry Hwy @ Cam St,27.903996,-82.506337
1824,1824,Dale Mabry Hwy @ Fair Oaks Ave,27.901873,-82.50632
1825,1825,Dale Mabry Hwy @ Gandy Blvd,27.895119,-82.506401
1828,1828,Dale Mabry Hwy @ Rogers Ave,27.886963,-82.50653
1829,1829,Dale Mabry Hwy @ Wallace Ave,27.885502,-82.506551
1830,1830,Dale Mabry Hwy @ Oklahoma Ave,27.884108,-82.506566
1831,1831,Dale Mabry Hwy @ Wisconsin Ave,27.881738,-82.506663
1833,1833,Dale Mabry Hwy @ Bay Ave,27.879188,-82.506608
1835,1835,Dale Mabry Hwy @ Mango Ave,27.875198,-82.50653
1836,1836,Dale Mabry Hwy @ Interbay Blvd,27.872833,-82.506514
1839,1839,Kennedy Blvd @ Hyde Park Av,27.945778,-82.46349
1841,1841,Kennedy Blvd @ Brevard Av,27.94473,-82.466349
1842,1842,Kennedy Blvd @ N Boulevard,27.944707,-82.468349
1843,1843,Kennedy Blvd @ Delaware Av,27.944704,-82.470041
1844,1844,Kennedy Blvd @ Willow Av,27.944727,-82.472379
1845,1845,Kennedy Blvd @ Oregon Av,27.94474,-82.474568
1846,1846,Kennedy Blvd @ Rome Av,27.94476,-82.476655
1847,1847,Kennedy Blvd @ Fremont Av,27.944775,-82.478777
1848,1848,Kennedy Blvd @ Albany Av,27.944796,-82.480859
1849,1849,Kennedy Blvd @ Howard Av,27.944812,-82.482788
1851,1851,Kennedy Blvd @ Arrawana Av,27.944854,-82.487634
1853,1853,Kennedy Blvd @ Gomez Av,27.944859,-82.491029
1855,1855,Kennedy Blvd @ MacDill Av,27.944872,-82.493906
1857,1857,Kennedy Blvd @ Lincoln Av,27.944883,-82.497304
1858,1858,Kennedy Blvd @ Glen Av,27.944893,-82.499556
1859,1859,Kennedy Blvd @ Himes Av,27.944896,-82.501384
1860,1860,Kennedy Blvd @ Sterling Av,27.944898,-82.503265
1861,1861,Kennedy Blvd @ Church Av,27.944964,-82.507614
1863,1863,Kennedy Blvd @ Clark Av,27.944971,-82.511785
1864,1864,Kennedy Blvd @ Lois Av,27.944978,-82.513749
1865,1865,Kennedy Blvd @ Hubert Av,27.944986,-82.515885
1866,1866,Kennedy Blvd @ Manhattan Av,27.944978,-82.518382
1867,1867,Kennedy Blvd @ Hesperides St,27.944992,-82.519965
1868,1868,Kennedy Blvd @ Trask St,27.945,-82.521818
1869,1869,Kennedy Blvd @ Westshore Blvd,27.944987,-82.523947
1870,1870,Kennedy Blvd @ Renellie Dr,27.944681,-82.523508
1871,1871,Kennedy Blvd @ Trask St,27.944673,-82.522
1872,1872,Kennedy Blvd @ Hesperides St,27.944675,-82.520299
1873,1873,Kennedy Blvd @ Manhattan Av,27.944676,-82.518264
1874,1874,Kennedy Blvd @ Hubert Av,27.944669,-82.516199
1875,1875,Kennedy Blvd @ Lois Av,27.94467,-82.514306
1876,1876,Kennedy Blvd @ Clark Av,27.944681,-82.512068
1878,1878,Kennedy Blvd @ Church Av,27.944675,-82.507543
1879,1879,Kennedy Blvd @ Dale Mabry Hwy,27.944703,-82.505346
1880,1880,Kennedy Blvd @ Himes Av,27.944651,-82.501763
1883,1883,Kennedy Blvd @ Henderson Blvd,27.944645,-82.495678
1884,1884,Kennedy Blvd @ MacDill Av,27.944674,-82.493441
1885,1885,Kennedy Blvd @ Gomez Av,27.944675,-82.491396
1888,1888,Kennedy Blvd @ Tampania Ave,27.944668,-82.485575
1890,1890,Kennedy Blvd @ Howard Av,27.944651,-82.483267
1891,1891,Kennedy Blvd @ Albany Av,27.944625,-82.481029
1892,1892,Kennedy Blvd @ Fremont Av,27.944608,-82.478934
1893,1893,Kennedy Blvd @ Rome Av,27.944581,-82.476919
1894,1894,Kennedy Blvd @ Oregon Av,27.944582,-82.474884
1895,1895,Kennedy Blvd @ Willow Av,27.944555,-82.4729
1896,1896,Kennedy Blvd @ Delaware Av,27.944529,-82.47043
1897,1897,Kennedy Blvd @ S Boulevard,27.944512,-82.468031
1898,1898,Kennedy Blvd @ Brevard Av,27.944494,-82.466785
1899,1899,Kennedy Blvd @ Hyde Park Av,27.94531,-82.464164
1908,1908,Swann Av @ Audubon Av,27.937446,-82.486989
1910,1910,Swann Av @ Gomez Av,27.93747,-82.491065
1911,1911,Swann Av @ MacDill Av,27.937516,-82.493089
1912,1912,Swann Av @ Matanzas Av,27.937502,-82.495237
1913,1913,Swann Av @ Lincoln Av,27.937509,-82.497385
1915,1915,Swann Av @ Henderson Blvd,27.937605,-82.500381
1916,1916,Swann Av @ Glen Av,27.937433,-82.499692
1917,1917,Swann Av @ Lincoln Av,27.937407,-82.497627
1919,1919,Swann Av @ MacDill Av,27.937382,-82.493629
1922,1922,Swann Av @ Audubon Av,27.937322,-82.48715
1923,1923,Swann Av @ Parkland Blvd,27.937323,-82.485561
1951,1951,Euclid Ave @ Waverly Cir,27.908733,-82.494852
1955,1955,Euclid Av @ Grady Av,27.90875,-82.510125
1956,1956,Euclid Av @ Clark Av,27.908768,-82.511587
1957,1957,Euclid Av @ Lois Av,27.908784,-82.514264
1959,1959,Euclid Av @ Coolidge Av,27.908834,-82.517472
1972,1972,Euclid Av @ Lois Ave,27.908646,-82.514466
1974,1974,Euclid Av @ Grady Ave,27.908613,-82.510317
1976,1976,Euclid Ave @ Dale Mabry Hwy,27.908588,-82.506785
1978,1978,Euclid Av @ Himes Av,27.908581,-82.502748
1987,1987,56th St @ Hanna Av,28.003837,-82.393327
1991,1991,56th St @ Sligh Ave,28.011458,-82.393291
1992,1992,56th St @ Kenny Dr,28.01599,-82.39333
1993,1993,56th St @ Neal Dr,28.017885,-82.393286
1994,1994,56th St @ Puritan Rd,28.020663,-82.393196
2000,2000,56th St @ Temple Heights Rd,28.036329,-82.39336
2001,2001,56th St @ Mission Hills Av,28.039661,-82.393358
2003,2003,56th St @ Deer Park Av,28.042622,-82.393377
2005,2005,56th St @ Whiteway Dr,28.048119,-82.393455
2006,2006,56th St @ 113th Av @ City Hall,28.049894,-82.393464
2008,2008,56th St @ Fowler Ave,28.055435,-82.393522
2012,2012,56th St @ Whiteway Dr,28.047712,-82.393922
2019,2019,56th St @ Temple Heights Rd,28.03603,-82.393634
2021,2021,56th St @ Busch Blvd,28.033069,-82.393625
2022,2022,56th St @ Grove Hill Rd,28.029701,-82.393611
2025,2025,56th St @ Puritan Rd S/S,28.019961,-82.393558
2026,2026,56th St @ Kirby St,28.017814,-82.393626
2028,2028,56th St @ Sligh Ave,28.011605,-82.393715
2029,2029,56th St @ Diana St,28.007766,-82.393721
2031,2031,56th St @ Hanna Av,28.003584,-82.393699
2032,2032,56th St @ Franklin Bldg,28.001815,-82.39367
2037,2037,Cypress St @ Willow Av,27.952064,-82.472731
2039,2039,Cypress St @ Rome Av,27.952075,-82.476615
2045,2045,Cypress St @ Excelda Av,27.952051,-82.490288
2046,2046,Cypress St @ MacDill Av,27.952101,-82.492312
2050,2050,Cypress St @ Himes Ave,27.952205,-82.501292
2051,2051,Cypress St @ Dale Mabry Hwy,27.952313,-82.506422
2052,2052,Cypress St @ Church Ave,27.952267,-82.507598
2055,2055,Cypress St @ Lois Ave,27.952315,-82.513584
2056,2056,Cypress St @ Hubert Ave,27.952322,-82.516226
2057,2057,Cypress St @ Manhattan Ave,27.952339,-82.517856
2058,2058,Cypress St @ Trask St,27.952399,-82.521886
2060,2060,Cypress St @ Occident St,27.952432,-82.525946
2061,2061,Cypress St @ Ward St,27.952458,-82.528031
2062,2062,Cypress St @ Sherrill St,27.952483,-82.530158
2063,2063,Cypress St @ O'Brien St,27.952509,-82.532081
2067,2067,Cypress St @ Sherrill St,27.952238,-82.53039
2068,2068,Cypress St @ Ward St,27.952204,-82.528699
2069,2069,Cypress St @ Occident St,27.952178,-82.526644
2071,2071,Cypress St @ Trask St,27.952145,-82.522351
2073,2073,Cypress St @ Manhattan Ave,27.952103,-82.51817
2074,2074,Cypress St @ Hubert Ave,27.952078,-82.516084
2075,2075,Cypress St @ Lois Ave,27.952083,-82.513472
2078,2078,Cypress St @ Church Ave,27.952117,-82.50802
2079,2079,Cypress St @ Dale Mabry Hwy,27.952027,-82.504774
2080,2080,Cypress St @ Himes Ave,27.952033,-82.501829
2086,2086,Cypress St @ MacDill Av E/S,27.951938,-82.492524
2087,2087,Cypress St @ Excelda Av,27.951912,-82.490307
2095,2095,Cypress St @ N Blvd,27.951897,-82.469009
2096,2096,Cypress St @ Willow Av,27.951901,-82.472792
2097,2097,Manhattan Av @ Interbay Blvd,27.86632,-82.518515
2100,2100,Manhattan Av @ Rembrandt Dr,27.872598,-82.518561
2101,2101,Manhattan Av @ Mango Av,27.875669,-82.518554
2102,2102,Manhattan Av @ Bay Av,27.87913,-82.518527
2103,2103,Manhattan Av @ Iowa Av,27.880783,-82.518454
2105,2105,Manhattan Av @ Oklahoma Av,27.883735,-82.51843
2107,2107,Manhattan Av @ Pearl Av,27.88746,-82.51839
2112,2112,Manhattan Av @ Gandy Blvd,27.89451,-82.518384
2113,2113,Manhattan Av @ Aegean Dr,27.89694,-82.518311
2115,2115,Manhattan Av @ La Villa Lane,27.898443,-82.518332
2118,2118,Manhattan Av @ Bay View Av,27.904929,-82.518348
2119,2119,Manhattan Av @ Bay  Vista Av,27.907022,-82.517986
2147,2147,Manhattan Av @ Wallcraft Av,27.903394,-82.51847
2149,2149,Manhattan Av @ Fair Oaks Av,27.900047,-82.518516
2156,2156,Manhattan Av @ Paul Av,27.891507,-82.518423
2158,2158,Manhattan Av @ Pearl Av,27.887763,-82.518515
2160,2160,Manhattan Av @ Oklahoma Av,27.883985,-82.518531
2162,2162,Manhattan Av @ Iowa Av,27.881168,-82.518569
2165,2165,Manhattan Av @ Varn Av,27.872557,-82.518707
2166,2166,Manhattan Av @ McCoy St,27.869828,-82.518635
2168,2168,Interbay Blvd @ Manhattan Ave,27.865968,-82.519042
2201,2201,MacDill Av @ Mason St,27.918306,-82.493556
2236,2236,MacDill Av @ El Prado Blvd,27.911608,-82.493758
2237,2237,MacDill Av @ Euclid Av,27.908822,-82.493803
2265,2265,Interbay Blvd @ Trask St,27.865974,-82.522439
2267,2267,Interbay Blvd @ Westshore Blvd,27.86601,-82.526837
2268,2268,Interbay Blvd @ Fitzgerald St,27.865861,-82.526333
2270,2270,Interbay Blvd @ Trask St,27.865836,-82.522732
2272,2272,Idaho St @ Kissimmee St,27.859648,-82.528483
2276,2276,Idaho St @ O'Brien St,27.859676,-82.532537
2279,2279,Henderson Blvd @ Sterling Av,27.935511,-82.50377
2281,2281,Henderson Blvd @ Sterling Av,27.936,-82.503477
2283,2283,Henderson Ave @ Nebraska Ave,27.959653,-82.450978
2297,2297,Platt St @ Westland Av,27.941808,-82.48205
2301,2301,Platt St @ Dakota Av,27.941719,-82.475905
2303,2303,Platt St @ Delaware Av,27.94173,-82.470785
2306,2306,Platt St @ Hyde Park Ave,27.941596,-82.463717
2307,2307,Platt St @ Plant Av,27.941551,-82.462695
2308,2308,Platt St @ Parker St,27.94156,-82.461308
2316,2316,7th Av @ 47th St,27.960947,-82.405752
2318,2318,7th Av @ 43rd St,27.960264,-82.409884
2321,2321,7th Av @ 39th St,27.960251,-82.415403
2326,2326,7th Av @ 31st St,27.960282,-82.425179
2327,2327,7th Av @ 27th St,27.960275,-82.429212
2330,2330,7th Av @ 24th St,27.960293,-82.43209
2332,2332,7th Av @ 10th St,27.960338,-82.448414
2333,2333,7th Av @ Scott St,27.960184,-82.448372
2336,2336,7th Av @ 24th St,27.96013,-82.432101
2341,2341,7th Av @ 34th St,27.96012,-82.422623
2343,2343,7th Av @ 36th St,27.960111,-82.419646
2345,2345,7th Av @ 39th St,27.960101,-82.415849
2347,2347,7th Av @ 43rd St,27.960108,-82.41025
2349,2349,7th Av @ 50th St,27.961519,-82.402766
2355,2355,14th Av SE @ 15th St SE,27.70591,-82.414554
2356,2356,14th Av SE @ 9th St SE,27.705958,-82.423335
2357,2357,14th Av SE @ 6th St SE,27.705993,-82.427375
2361,2361,14th Av SE @ 6th St SE,27.705866,-82.426688
2363,2363,14th Av SE @ 15th St SE,27.705768,-82.414798
2368,2368,18th Ave @ 31st St,27.968273,-82.425936
2369,2369,21st St @ 22nd Ave,27.971144,-82.435219
2371,2371,21st St @ 17th Av,27.967633,-82.435541
2372,2372,21st St @ Columbus Dr,27.966851,-82.435604
2382,2382,21st Av @ 43rd St,27.970496,-82.410332
2384,2384,21st Av @ 40th St,27.970489,-82.41375
2386,2386,21st Av @ 38th St,27.970452,-82.417206
2387,2387,21st Av @ 35th St,27.97053,-82.420078
2388,2388,21st Av @ 34th St,27.970531,-82.421989
2391,2391,21st Av @ 29th St,27.970518,-82.427846
2392,2392,21st Av @ 26th St,27.970491,-82.43052
2394,2394,21st Av @ 21St St,27.970557,-82.43532
2397,2397,21st Av @ 19th St,27.970537,-82.438044
2398,2398,21st Av @ 17th St,27.970533,-82.439923
2400,2400,21st Av @ 15th St,27.970553,-82.443215
2406,2406,21st Av @ 11th St,27.970509,-82.447978
2408,2408,21st Av @ Republica de Cuba,27.970491,-82.445226
2409,2409,21st Av @ 15th St,27.97041,-82.44317
2411,2411,21st Av @ 17th St,27.970419,-82.4401
2412,2412,21st Av @ 19th St,27.97041,-82.437639
2414,2414,21st Av @ 22nd St,27.970422,-82.434906
2416,2416,21st Av @ 26th St,27.970409,-82.430722
2418,2418,21st Av @ 32nd St,27.970364,-82.424172
2420,2420,21st Av @ O'Berry Ln,27.970387,-82.422116
2422,2422,21st Av @ 40th St,27.970317,-82.414793
2432,2432,Gibsonton Dr @ Oak Ridge Av,27.857193,-82.329293
2433,2433,Gibsonton Dr @ Hagadorn Rd,27.85721,-82.33489
2435,2435,Gibsonton Dr @ Prevatt St,27.849827,-82.353749
2436,2436,Gibsonton Dr @ Vaughn St,27.849772,-82.356348
2437,2437,Gibsonton Dr @ Ray St,27.849834,-82.35831
2438,2438,Gibsonton Dr @ Linda St,27.849838,-82.361278
2439,2439,Gibsonton Dr @ Martin Rd,27.849836,-82.363883
2440,2440,Gibsonton Dr @ River Dr,27.84983,-82.366053
2441,2441,Gibsonton Dr @ Alafia St,27.849835,-82.370363
2443,2443,Gibsonton Dr @ Gloria St,27.849854,-82.372652
2444,2444,Gibsonton Dr @ Davis St,27.849855,-82.37648
2445,2445,Gibsonton Dr @ Ethel St,27.84984,-82.37872
2446,2446,Gibsonton Dr @ Massachusetts St,27.849839,-82.380541
2448,2448,Gibsonton Dr @ Gloria St,27.849659,-82.373003
2451,2451,Gibsonton Dr @ Alafia St,27.849658,-82.37093
2453,2453,Gibsonton Dr @ Vern St,27.849635,-82.366669
2455,2455,Gibsonton Dr @ Sunset Ct,27.84969,-82.36201
2457,2457,Gibsonton Dr @ Ray St,27.849649,-82.358623
2461,2461,Gibsonton Dr @ Kenda Dr,27.85694,-82.335336
2502,2502,Lois Av @ Grace St,27.952739,-82.513808
2504,2504,Lois Av @ Laurel St,27.955639,-82.513802
2506,2506,Lois Av @ Spruce St,27.95924,-82.513738
2519,2519,Lois Av @ Kentucky Ave,27.97858,-82.513738
2520,2520,Lois Ave @ Woodlawn Ave,27.975927,-82.513776
2522,2522,Lois Av @ Spruce St,27.959034,-82.513899
2524,2524,Lois Ave @ Laurel St,27.956033,-82.513907
2526,2526,Lois Ave @ Cypress St,27.952441,-82.513964
2607,2607,Harney Rd @ Parke East Blvd,27.998551,-82.383584
2611,2611,Harney Rd @ Sligh Av,28.011227,-82.375907
2619,2619,50th St @ Acline St,27.954328,-82.401663
2621,2621,50th St @ Uceta Rd,27.958217,-82.401665
2634,2634,50th St @ Puritan Rd,28.020023,-82.401961
2635,2635,50th St @ Porpoise Dr,28.017524,-82.402003
2636,2636,50th St @ Dolphin Dr,28.013766,-82.402025
2637,2637,50th St @ Sligh Ave,28.010823,-82.402026
2640,2640,50th St @ Acline St,27.954626,-82.401959
2642,2642,50th St @ Adamo Dr,27.952511,-82.401861
2647,2647,Kings Av @ Bloomingdale Av,27.894388,-82.293858
2648,2648,Kings Av @ Southwood Cove,27.903482,-82.293867
2650,2650,Kings Av @ Hickory Lake Dr,27.91454,-82.29379
2655,2655,Kings Av @ Oak Park Place,27.921174,-82.294116
2656,2656,Kings Av @ Tradewind Dr,27.917895,-82.294081
2657,2657,Kings Av @ Calm Dr,27.914272,-82.294087
2658,2658,Kings Av @ Tanglewood Way,27.909987,-82.294115
2660,2660,Kings Av @ Bloomingdale Av,27.894865,-82.294151
2667,2667,Oakfield Dr @ Moon Ave,27.933669,-82.288808
2668,2668,Oakfield Dr @ Noland Dr,27.933046,-82.29004
2682,2682,Orient Rd @ King Alfred Dr,27.98316,-82.372899
2683,2683,Orient Rd @ Chelsea St,27.985062,-82.372979
2688,2688,Orient @ Draper  @ Seminole Complex,27.992359,-82.373193
2689,2689,Orient Rd @ Cayuga St @ Fairgrounds,27.987561,-82.3732
2690,2690,Orient Rd @ Chelsea St,27.985342,-82.373161
2706,2706,Osborne Av @ 37th St,27.988875,-82.418181
2709,2709,Osborne Av @ Webster St,27.988694,-82.421149
2711,2711,Osborne Av @ 37th St,27.988712,-82.41813
2713,2713,Palm River Rd @ 78th St,27.941135,-82.369504
2718,2718,Palm River Rd @ 68th St,27.94115,-82.379072
2724,2724,Palm River Rd @ 56th St,27.943036,-82.394084
2730,2730,Palm River Rd @ Coconut Dr,27.941028,-82.375777
2732,2732,Palm River Rd @ 76th St,27.941035,-82.372962
2733,2733,Palm River Rd @ 78th St,27.940933,-82.369014
2734,2734,Palm Av @ 20th St,27.962525,-82.436498
2736,2736,Palm Av @ 17th St,27.962463,-82.440297
2737,2737,Palm Av @ 15th St,27.962541,-82.442215
2738,2738,Palm Ave @ Republica de Cuba,27.962549,-82.443994
2740,2740,Palm Av @ Central Av,27.962311,-82.455231
2742,2742,Palm Av @ Florida Av,27.962361,-82.460101
2744,2744,Palm Av @ Central Av,27.962149,-82.45543
2745,2745,Palm Av @ Mitchell Av,27.962177,-82.452099
2747,2747,Palm Av @ 15th St,27.962304,-82.44336
2748,2748,Palm Av @ 17th St,27.96225,-82.440636
2750,2750,Palm Av @ 20th St,27.962277,-82.436404
2753,2753,Parsons Ave @ Sadie St,27.941772,-82.28571
2757,2757,Progress Blvd @ US Hwy  301 F/S,27.893901,-82.340398
2759,2759,Progress Blvd @ 85th St,27.899257,-82.362922
2760,2760,Progress Blvd @ 83rd St,27.899304,-82.365076
2775,2775,Providence Rd @ Providence Park,27.895777,-82.318422
2778,2778,Providence Rd @ Providence Ridge Blvd,27.907934,-82.318425
2779,2779,Providence Rd @ Providence Lakes Blvd,27.910597,-82.318441
2781,2781,Providence Rd @ Sweetridge Av,27.917627,-82.318462
2782,2782,Providence Rd @ Windingwood Av,27.92073,-82.318483
2785,2785,Providence Rd @ Providence Ridge Blvd,27.907135,-82.318831
2790,2790,Providence @ Providence Bapt Church,27.897608,-82.318652
2791,2791,Providence Rd @ Providence Oaks Dr,27.896176,-82.318624
2811,2811,Brandon Blvd @ Lakeside Dr,27.937513,-82.299524
2813,2813,Brandon Blvd @ Hilltop Rd,27.937902,-82.305977
2817,2817,SR 60 @ Grand Regency Blvd,27.939044,-82.322309
2832,2832,Brandon Blvd @ Providence Rd,27.937498,-82.313835
2833,2833,Brandon Blvd @ Lakewood Dr,27.937482,-82.311226
2835,2835,Hardcastle Pl @ SR 60,27.938113,-82.225979
2836,2836,Brandon Blvd @ Limona Rd,27.937519,-82.30409
2837,2837,Brandon Blvd @ Pauls Dr,27.937516,-82.302308
2839,2839,Brandon Blvd @ Buckingham Pl,27.937491,-82.296487
2863,2863,US Hwy 301 @ Balm Riverview Rd,27.866154,-82.326474
2864,2864,US Hwy 301 @ Riverview Dr,27.871499,-82.326561
2890,2890,US Hwy 301 @ Moody Rd,27.870548,-82.326752
2893,2893,US Hwy 41 @ 4th Av,27.715849,-82.433928
2894,2894,US Hwy 41 @ Shell Point Rd,27.720615,-82.4339
2896,2896,US Hwy 41 @ 7th Av,27.724041,-82.433646
2904,2904,Us HWY 41 @ Ellsberry Rd,27.774076,-82.388569
2905,2905,US Hwy 41 @ Big Bend Rd,27.791632,-82.384275
2907,2907,US Hwy 41 @ Kracker Av,27.814262,-82.383902
2908,2908,US Hwy 41 @ Ohio St,27.822255,-82.38189
2910,2910,US Hwy 41 @ Symmes Rd,27.835336,-82.381519
2914,2914,US Hwy 41 @ Nundy Av,27.846017,-82.381509
2916,2916,US Hwy 41 @ Gibsonton Dr,27.849554,-82.38159
2917,2917,US Hwy 41 @ Gibsonton Dr,27.849284,-82.381841
2918,2918,US Hwy 41 @ Nundy Av,27.846253,-82.381712
2920,2920,US Hwy 41 @ Cedar Av,27.842348,-82.381752
2921,2921,US Hwy 41 @ Beach Av (Twin Oaks),27.840428,-82.38182
2923,2923,US Hwy 41 @ Isabel Av,27.83139,-82.381934
2924,2924,US Hwy 41 @ Mabrey Av,27.82664,-82.381727
2926,2926,US Hwy 41 @ Kracker Av,27.813922,-82.384321
2927,2927,US Hwy 41 @ Pembroke Rd,27.805505,-82.384438
2929,2929,US Hwy 41 @ Big Bend Rd,27.792031,-82.384516
2930,2930,US Hwy 41 @ P.T.G. Packing,27.78461,-82.38461
2931,2931,US Hwy 41 @ Elsberry Rd,27.774106,-82.388944
2935,2935,US Hwy 41 @ 7th Av NW F/S,27.723716,-82.434018
2939,2939,US Hwy 41 @ 4th Av SW,27.716266,-82.434261
2940,2940,Nuccio Pkwy @ 7th Av,27.960507,-82.446639
2941,2941,Nuccio Pkwy @ Palm Av,27.96224,-82.44654
2943,2943,Nuccio Pkwy @ 7th Av SS,27.959723,-82.446934
2944,2944,7th Ave @ Nuccio Pkwy,27.960357,-82.447076
2956,2956,20th St @ Fairbanks St,28.026758,-82.436615
2958,2958,20th St @ Eskimo Av,28.029538,-82.436625
2959,2959,20th St @ Eskimo Av,28.029719,-82.436807
2961,2961,20th St @ Fairbanks St,28.027012,-82.436807
2972,2972,34th St @ 18th Av,27.968199,-82.422318
2973,2973,34th St @ 21st Av,27.969521,-82.422267
2974,2974,34th St @ 22nd Av,27.971559,-82.422266
2976,2976,34th St @ 26th Av,27.973977,-82.422317
2977,2977,34th St @ 28th Av,27.975834,-82.422296
2978,2978,34th St @ Lake Av,27.977617,-82.422363
2980,2980,34th St @ Lindell Av,27.979982,-82.422315
2982,2982,34th St @ Genessee St,27.984519,-82.422325
2987,2987,34th St @ Genessee St,27.984519,-82.422507
2989,2989,34th St @  M L King Jr Blvd,27.98125,-82.422487
2990,2990,34th St @ Lindell Av,27.980217,-82.422459
2991,2991,34th St @ Lake Av,27.978096,-82.422525
2992,2992,34th St @ Chipco St,27.975637,-82.4224
2993,2993,34th St @ 26th Av,27.974235,-82.422398
2995,2995,34th St @ 22nd Av,27.97138,-82.422387
2996,2996,18th Ave @ 33rd St,27.968299,-82.423128
2997,2997,Columbus Dr @ 13th St,27.966889,-82.445396
2999,2999,Columbus Dr @ 10th St,27.966914,-82.449082
3001,3001,Columbus Dr @ Mitchell Av,27.966906,-82.451929
3003,3003,Columbus Dr @ Central Av,27.966897,-82.45521
3005,3005,Columbus Dr @ Florida Av,27.966906,-82.459014
3006,3006,Columbus Dr @ Tampa St,27.966928,-82.460741
3008,3008,Columbus Dr @ Ola Av,27.966955,-82.463359
3010,3010,Columbus Dr @ N Boulevard,27.966968,-82.467466
3011,3011,Columbus Dr @ Myrtle Av,27.966945,-82.46936
3013,3013,Columbus Dr @ Ridgewood Av,27.966957,-82.472925
3014,3014,Columbus Dr @ Rome Av,27.966664,-82.476875
3015,3015,Columbus Dr @ Fremont Av,27.966684,-82.478962
3017,3017,Columbus Dr @ Howard Ave,27.966725,-82.482584
3018,3018,Columbus Dr @ Armenia Av,27.966748,-82.484727
3019,3019,Columbus Dr @ Tampania Av,27.966759,-82.486843
3020,3020,Columbus Dr @ Habana Av,27.966777,-82.488907
3022,3022,Columbus Dr @ MacDill Av,27.966812,-82.492872
3024,3024,Columbus Dr @ Lincoln Av,27.966797,-82.497176
3026,3026,Columbus Dr @ Himes Av,27.966579,-82.500817
3028,3028,Columbus Dr @ Lincoln Av,27.966581,-82.497445
3030,3030,Columbus Dr @ MacDill Av,27.966574,-82.493425
3032,3032,Columbus Dr @ Habana Av,27.966662,-82.48916
3033,3033,Columbus Dr @ Tampania Av,27.966614,-82.487055
3034,3034,Columbus Dr @ Armenia Av,27.96666,-82.485943
3035,3035,Columbus Dr @ Howard Av,27.966561,-82.482984
3037,3037,Columbus Dr @ Fremont Av,27.966535,-82.478802
3038,3038,Columbus Dr @ Rome Av,27.966509,-82.476757
3039,3039,Columbus Dr @ Ridgewood Av,27.966827,-82.473243
3041,3041,Columbus Dr @ Glenwood Dr,27.966847,-82.469111
3042,3042,Columbus Dr @ Ola Av,27.966766,-82.463714
3045,3045,Columbus Dr @ Tampa St,27.966776,-82.461051
3046,3046,Columbus Dr @ Florida Av,27.966776,-82.459583
3047,3047,Columbus Dr @ Central Av,27.966759,-82.455603
3048,3048,Columbus Dr @ Nebraska Av,27.96675,-82.451036
3050,3050,Columbus Dr @ 10th St,27.966751,-82.449163
3052,3052,Columbus Dr @ 13th St,27.966733,-82.445558
3054,3054,Columbus Dr @ 15th St,27.966715,-82.44332
3056,3056,Columbus Dr @ 17th St,27.966715,-82.440545
3057,3057,Columbus Dr @ 19th St,27.966715,-82.438075
3061,3061,Columbus Dr @ 26th St,27.966678,-82.430763
3063,3063,Columbus Dr @ 29th St,27.966687,-82.428374
3064,3064,Columbus Dr @ 31st St,27.96666,-82.425862
3067,3067,Columbus Dr @ 37th St,27.96664,-82.41847
3068,3068,Columbus Dr @ 40th St,27.966698,-82.413655
3075,3075,131st Ave @ Bruce B Downs Blvd,28.065622,-82.427348
3077,3077,131st Av @ 23rd St,28.065554,-82.432328
3080,3080,131st Ave @ 19th St,28.065605,-82.438509
3081,3081,131st Av @ 15th St,28.065514,-82.44294
3082,3082,131st Av @ 15th St,28.065659,-82.442727
3086,3086,131st Ave @ Bruce B Downs Blvd,28.065459,-82.427307
3104,3104,Spectrum Bld @ Embassy S,28.056439,-82.416837
3110,3110,Holly Dr @ USF Magnolia Dr,28.066134,-82.421069
3113,3113,Holly Dr @ Pine Dr @ Crosswalk,28.065757,-82.424618
3114,3114,Holly Dr @ USF Magnolia Dr,28.065891,-82.420902
3116,3116,Holly Dr @ USF Laurel Dr,28.065944,-82.419168
3169,3169,Hanley Rd @ Hillsborough Ave,27.997273,-82.562748
3172,3172,Hanley Rd @ Hanna Ave,28.003857,-82.562575
3173,3173,Hanley Rd @ Jackson Springs Rd,28.00724,-82.562506
3175,3175,Hanley Rd @ Woodbridge Blvd,28.013257,-82.562422
3176,3176,Hanley Rd @ Barry Rd,28.017332,-82.562326
3177,3177,Hanley Rd @ Twelve Oaks Blvd,28.021507,-82.562251
3182,3182,Hanley Rd @ Winging Way Dr,28.023508,-82.562548
3183,3183,Hanley Rd @ Nesting Place Ct,28.022086,-82.562566
3185,3185,Hanley Rd @ Barry Rd,28.017819,-82.562576
3186,3186,Hanley Rd @ Woodbridge Blvd,28.013171,-82.562548
3188,3188,Hanley Rd @ Jackson Springs Rd,28.00764,-82.562641
3189,3189,Hanley Rd @ Hanna Ave,28.004228,-82.56272
3191,3191,Hanley Rd @ Henry Ave,28.00049,-82.56279
3192,3192,Hanley Rd @ Hillsborough Ave,27.996829,-82.562945
3196,3196,Kelly Rd @ Swindon Rd,27.986239,-82.564834
3198,3198,Kelly Rd @ New Orleans St,27.991085,-82.56479
3200,3200,Kelly Rd @ Hillsborough Ave,27.996305,-82.564795
3201,3201,Kelly Rd @ Hillsborough Ave,27.996131,-82.564897
3203,3203,Kelly Rd @ New Orleans St,27.991353,-82.564913
3214,3214,78th St @ Causeway Blvd,27.920652,-82.368798
3215,3215,78th St @ Causeway Blvd,27.923197,-82.368604
3216,3216,78th St @ 24th Av,27.926163,-82.368613
3218,3218,78th St @ Tidewater Trail,27.929725,-82.368606
3220,3220,78th St @ Clair Mel Cir,27.933217,-82.368561
3222,3222,78th St @ Parish Place,27.935963,-82.368589
3224,3224,78th St @ Destin Dr,27.939154,-82.368732
3229,3229,78th St @ Paradise Place,27.929737,-82.368762
3231,3231,78th St @ 24th Av,27.926469,-82.368762
3234,3234,78th St @ 34th Av,27.917853,-82.368791
3238,3238,78th St @ 49th Av,27.903767,-82.368741
3245,3245,Bay To Bay Blvd @ Concordia Ave,27.919792,-82.4986
3248,3248,Bay To Bay Blvd @ Sterling Ave,27.91982,-82.505035
3250,3250,Bay To Bay Blvd @ Sterling Ave,27.919668,-82.503627
3252,3252,Bay To Bay Blvd @ Malijo Ave,27.919652,-82.50058
3255,3255,Bay To Bay Blvd @ Esperanza Ave,27.91965,-82.4955
3267,3267,Bearss Av @ 22nd St,28.080264,-82.43491
3270,3270,Cleveland St @ Magnolia Ave,27.943181,-82.465631
3272,3272,Cleveland St @ Fielding Ave,27.943204,-82.467561
3274,3274,Cleveland St @ Delaware Ave,27.94322,-82.470489
3275,3275,Cleveland St @ Willow Ave,27.943245,-82.472519
3276,3276,Cleveland St @ Dakota Ave,27.943286,-82.475554
3282,3282,Cleveland St @ Moody Ave,27.943396,-82.483877
3284,3284,Ferris Av @ Farwell  Dr,27.98235,-82.47945
3285,3285,Ferris Av @ Wishart Blvd,27.982627,-82.483843
3294,3294,Howard Ave @ De Soto Ave,27.928636,-82.483151
3297,3297,Howard Ave @ Watrous Ave,27.932283,-82.48298
3298,3298,Howard Av @ Morrison Av,27.933592,-82.482947
3301,3301,Howard Av @ Swann Av,27.937179,-82.482898
3303,3303,Howard Av @ Horatio St,27.939633,-82.48291
3305,3305,Howard Ave @ Platt St,27.941843,-82.482931
3307,3307,Howard Av @ Walnut St,27.959921,-82.482848
3309,3309,Howard Av @ Beach St,27.962927,-82.482813
3316,3316,Howard Av @ Swann Av,27.936727,-82.483071
3319,3319,Howard Av@ Morrison,27.933374,-82.483139
3320,3320,Howard Av @ Watrous Av,27.932097,-82.483169
3322,3322,Howard Av @ Mississippi Av,27.928899,-82.483287
3325,3325,Howard Av @ Palm Dr,27.927197,-82.483298
3328,3328,Hyde Park Ave @ Platt St,27.941886,-82.464001
3329,3329,Hyde Park Av @ Azeele St,27.940618,-82.464031
3332,3332,Spruce St @ Dale Mabry Hwy,27.959523,-82.506675
3334,3334,Spruce St @ Grady Ave,27.959521,-82.509192
3340,3340,Spruce St @ Clark Av,27.959363,-82.511474
3341,3341,Spruce St @ Grady Av,27.959365,-82.508962
3342,3342,Spruce St @ Dale Mabry Hwy,27.959384,-82.506431
3343,3343,Spruce St @ Marie Ave,27.959377,-82.504487
3348,3348,Livingston Av @ Bearss Av,28.081024,-82.430772
3350,3350,Livingston Av @ 149th Av,28.086411,-82.430721
3359,3359,Main St @ N Boulevard,27.957073,-82.468707
3361,3361,Main St @ Willow Av,27.957109,-82.472253
3366,3366,Main St @ Howard Ave,27.957207,-82.48272
3367,3367,Main St @ Howard Av,27.95706,-82.483324
3372,3372,Main St @ Willow Av,27.956919,-82.473087
3374,3374,Main St @ N Boulevard,27.95692,-82.468784
3376,3376,Plant Ave @ Beach Place,27.940304,-82.462761
3388,3388,Puritan Rd @ Pine Hill Dr,28.020318,-82.39617
3401,3401,Rome Av @ Wishart Blvd,27.989301,-82.476325
3406,3406,Rome Av @ Hillsborough Av,27.995029,-82.476101
3407,3407,Rome Av @ Comanche Av,27.997555,-82.476061
3408,3408,Rome Av @ Powhatan Av,27.999222,-82.476072
3409,3409,Rome Av @ Burke St,28.001776,-82.476053
3411,3411,Rome Av @ Hanna Av,28.003188,-82.476044
3412,3412,Rome Av @ Lambright St,28.005688,-82.476004
3414,3414,Rome Av @ Sligh Av,28.010571,-82.476019
3418,3418,Rome Av @ North St,28.00618,-82.476148
3419,3419,Rome Av @ Hanna Av,28.003519,-82.476159
3420,3420,Rome Av @ Burke St,28.001531,-82.476235
3422,3422,Rome Av @ Powhatan Av,27.99908,-82.47619
3423,3423,Rome Av @ Comanche Av,27.997768,-82.476182
3424,3424,Rome Av @ Hillsborough Av,27.99625,-82.476205
3426,3426,Rome Av @ Bedingfield Dr,27.99232,-82.476295
3427,3427,Rome Av @ Wishart Blvd,27.98973,-82.476375
3429,3429,Rome Av @ Johnston Av,27.985097,-82.476495
3431,3431,Rome Av @ Ferris Av,27.982675,-82.47656
3432,3432,Rowlett Park Dr @ Sligh Av,28.011227,-82.430111
3435,3435,Rowlett Park Dr @ 22nd St,28.022674,-82.435328
3436,3436,Rowlett Park Dr @ Waters Ave,28.024875,-82.436817
3437,3437,Rowlett Park Dr @ Waters Ave,28.024576,-82.436827
3438,3438,Rowlett Park Dr @ Mulberry Dr,28.022728,-82.435581
3439,3439,Rowlett Park Dr @ Sligh Av,28.011371,-82.430315
3445,3445,Skagway Av @ 20th St,28.031893,-82.436594
3446,3446,Skagway Av @ 22nd St,28.031702,-82.434811
3457,3457,Violet St @ Florida Ave,27.990742,-82.460184
3466,3466,Ysabella Av @ Bay To Bay Blvd,27.919589,-82.491423
3468,3468,Yukon St @ Ruth Place,28.028978,-82.42706
3470,3470,River Hills Dr @ 26th St,28.028724,-82.430787
3471,3471,Yukon St @ Florida Ave,28.029138,-82.459172
3473,3473,Yukon St @ Suwanee Av,28.028966,-82.458888
3479,3479,Yukon St @ Ruth Place,28.028867,-82.427261
3513,3513,17th Ave @ 25th St,27.967515,-82.43182
3515,3515,17th Ave @ 22nd St,27.96753,-82.434561
3516,3516,17th Av @ 20th St,27.967527,-82.436765
3517,3517,17th Av @ 18th St,27.967612,-82.439158
3518,3518,17th Av @ 16th St,27.967614,-82.441612
3519,3519,19th Av @ 40th St,27.968551,-82.414682
3520,3520,19th Av @ 36th St,27.968502,-82.419164
3578,3578,Brorein St @ Parker St,27.94347,-82.460659
3580,3580,Brorein St @ Hyde Park Ave,27.943199,-82.464109
3593,3593,Fowler Ave. @ 53rd St.,28.054568,-82.395391
3595,3595,Fowler Ave @ 50th St,28.054624,-82.401389
3600,3600,Fowler Av @ Nebraska Av,28.054449,-82.449498
3602,3602,Fowler Av @ 51st St,28.054261,-82.401126
3607,3607,Gunn Hwy @ Linebaugh Av,28.040708,-82.508958
3610,3610,Gunn Hwy @ Linebaugh Av,28.040445,-82.509134
3634,3634,Kissimmee St @ Commerce St,27.863619,-82.528566
3655,3655,Memorial Hwy @ George Rd,27.981908,-82.550648
3658,3658,Memorial Hwy @ Waltham Ave,27.981882,-82.559075
3659,3659,Memorial Hwy @ Kelly Rd,27.982818,-82.564884
3661,3661,Memorial Hwy @ Dana Shores Dr,27.981689,-82.559032
3662,3662,Memorial Hwy @ Independence Pkwy,27.98164,-82.555357
3664,3664,Memorial Hwy @ George Rd,27.98161,-82.549736
3730,3730,Armenia Av @ Virginia Av,27.979628,-82.484676
3731,3731,Armenia Av @ Wishart Place,27.982618,-82.484542
3732,3732,Armenia Av @ Eddy Dr,27.98544,-82.484582
3734,3734,Armenia Av @ Osborne Av,27.988491,-82.484527
3736,3736,Armenia Av @ Hillsborough Av,27.995795,-82.484306
3739,3739,Armenia Ave @ Comanche Ave,27.997506,-82.484346
3740,3740,Armenia Av @ Powhatan Av,27.998883,-82.484343
3743,3743,Armenia Av @ Hanna Av,28.003245,-82.484344
3745,3745,Armenia Ave @ Minnehaha St,28.008906,-82.484337
3748,3748,Armenia Av @ Hamilton Av,28.014224,-82.485218
3751,3751,Armenia Av @ Marquette Av,28.019565,-82.484213
3753,3753,Armenia Av @ Rose Hill Av,28.024421,-82.48417
3754,3754,Armenia Av @ Waters Av,28.026024,-82.48415
3758,3758,Armenia Av @ Skagway Av,28.032046,-82.484052
3759,3759,Armenia Av @ Rambla St,28.033682,-82.484098
3761,3761,Armenia Av @ Marianna St,28.03777,-82.482403
3772,3772,Armenia Av @ Kenmore Av,28.018798,-82.48442
3774,3774,Armenia Av @ Hamilton Av,28.014143,-82.485309
3775,3775,Armenia Av @ Sligh Av,28.010385,-82.484456
3777,3777,Armenia Av @ Hiawatha St,28.00883,-82.484434
3782,3782,Armenia Av @ Powhatan Av,27.999148,-82.484457
3783,3783,Armenia Ave @ Comanche Ave,27.998367,-82.48446
3784,3784,Armenia Av @ Hillsborough Av,27.996491,-82.484489
3785,3785,Armenia Av @ Crest Av,27.993966,-82.484508
3788,3788,Armenia Av @ Osborne Av,27.988914,-82.484619
3789,3789,Armenia Av @ Erna Dr,27.986539,-82.484664
3791,3791,Armenia Av @ Alva St,27.983237,-82.484712
3792,3792,Armenia Ave @  M L King Jr Blvd,27.981553,-82.484755
3797,3797,Armenia Av @ Braddock St,27.972658,-82.484863
3800,3800,Armenia Av @ Cordelia St,27.969012,-82.484895
3802,3802,Armenia Av @ St Joseph St,27.966116,-82.484969
3804,3804,Armenia Av @ Beach St,27.963146,-82.485018
3806,3806,Armenia Av @ Walnut St,27.960213,-82.485006
3808,3808,Armenia Av @ Azeele St,27.941244,-82.48511
3810,3810,Armenia Ave @ Deleon St,27.938802,-82.485106
3867,3867,Bloomingdale Av @ Buckhorn Creek Rd,27.893685,-82.296773
3869,3869,Bloomingdale Av @ Kings Av,27.893499,-82.293232
3917,3917,Marion St @ Kennedy Blvd,27.948514,-82.456436
3942,3942,Brandon Blvd @ Lakewood Dr,27.93788,-82.311213
3943,3943,Memorial Hwy @ Bray Rd,27.981938,-82.55636
3955,3955,Florida Ave @ Linebaugh Ave,28.039968,-82.459763
3956,3956,Linebaugh Av @ Ola Av,28.040001,-82.463748
3957,3957,Linebaugh Ave @ Florida Gulf Coast Apartments,28.040002,-82.466044
3958,3958,Linebaugh Av @ N Boulevard,28.040025,-82.467695
3960,3960,Linebaugh Av @ Forest Hills Dr,28.04003,-82.47238
3961,3961,Linebaugh Av @ Oregon Av,28.040073,-82.47456
3966,3966,Linebaugh Av @ Oregon Av,28.03991,-82.474823
3967,3967,Linebaugh Av @ Forest Hills Dr,28.03991,-82.472664
3970,3970,Linebaugh Av @  N Boulevard,28.039885,-82.467952
3971,3971,Linebaugh Av @ 816,28.039867,-82.466066
3972,3972,Linebaugh Av @ Dartmouth Av,28.039868,-82.463259
3973,3973,Linebaugh Av @ Florida Av,28.039868,-82.460077
3987,3987,56th St @ Firestone,28.031503,-82.393616
3996,3996,Highland Ave @ Osborne Ave,27.988898,-82.462135
3998,3998,Highland Ave @ Emma St,27.985955,-82.462129
4006,4006,Tampa St @ Emily St,27.975044,-82.460987
4009,4009,Tampa St @ Keyes St,27.969971,-82.46088
4013,4013,Tampa St @ Ross Ave,27.963397,-82.460993
4015,4015,Tampa St @ 7th Ave,27.96054,-82.461002
4016,4016,Tampa St @ Henderson Ave,27.958709,-82.461033
4020,4020,Waters Ave @ Hanley Rd,28.025736,-82.562602
4021,4021,Henderson Ave @ Florida Ave,27.959606,-82.459327
4044,4044,Broadway Av @ 50th St WS,27.961674,-82.402859
4047,4047,Busch Blvd @ 30th St,28.03267,-82.427015
4048,4048,Columbus Dr @ Woodrow Av,27.966866,-82.466804
4052,4052,Columbus Dr @ 22nd St,27.966706,-82.434875
4055,4055,Dale Mabry Hwy @ Stall Rd,28.061963,-82.503593
4059,4059,Dale Mabry Hwy @ Northgreen Av,28.10364,-82.502529
4063,4063,Harney Rd @ Hanna Ave,28.003306,-82.380623
4065,4065,Himes Av @ Hillsborough Av,27.996765,-82.500829
4069,4069,Linebaugh Av @ Albany Av,28.039899,-82.480134
4074,4074,Lois Av @ M L King Jr Blvd,27.981307,-82.513518
4078,4078,Manhattan Av @ Gandy Blvd,27.894771,-82.518574
4085,4085,Nuccio Pkwy @ Palm Av,27.962657,-82.446854
4090,4090,Oakfield Dr @ Pauls Dr,27.933948,-82.302207
4091,4091,Oakfield Dr @ Morrison Rd,27.934183,-82.309075
4095,4095,Rome Av @ Knollwood St,28.007418,-82.476025
4102,4102,Linebaugh Av @ Armenia Av,28.040056,-82.480554
4112,4112,22nd St @ Osborne Av,27.988596,-82.43463
4126,4126,22nd St @ Fowler Av,28.054932,-82.434713
4129,4129,22nd St @ Linebaugh Av,28.04006,-82.434749
4130,4130,22nd St @ 97th Av,28.037439,-82.434648
4132,4132,22nd St @ Busch Blvd,28.033037,-82.434686
4133,4133,22nd St @ Skagway Av,28.032025,-82.434694
4135,4135,22nd St @ North Bay St,27.983542,-82.434823
4142,4142,50th St @ Adamo Dr,27.952785,-82.401587
4177,4177,North St @ Bassa St,27.715913,-82.300503
4184,4184,W Cass @ Ashley Dr,27.950464,-82.462535
4190,4190,Fowler Av @ Nebraska Av,28.054539,-82.449508
4196,4196,Gunn Hwy @ Anderson Rd,28.061443,-82.542855
4213,4213,Holly Dr @ USF Genshaft Dr,28.065618,-82.407467
4217,4217,Holly Dr @ USF Genshaft Dr,28.06579,-82.407325
4219,4219,Holly Dr @ USF Myrtle Dr,28.065809,-82.412019
4222,4222,Parsons Av @ Brandon Blvd,27.938372,-82.285685
4228,4228,Hillsborough Av @ Ola Av,27.996322,-82.464118
4229,4229,Hillsborough Av @ Lee Place,27.996176,-82.469766
4231,4231,Hillsborough Av @ Rome Av,27.99607,-82.47597
4233,4233,Marion St @ Kennedy Blvd,27.948681,-82.456328
4234,4234,Marion St @ Zack St,27.950863,-82.457311
4235,4235,Marion St @ Cass St,27.952312,-82.457939
4241,4241,Marion St @ Cass St,27.951651,-82.457858
4244,4244,Marion St @ Estelle St,27.958346,-82.458695
4247,4247,Florida Ave @ Waters Ave,28.024458,-82.459583
4254,4254,Britton Plaza Transfer Center,27.906859,-82.504092
4255,4255,Kingfisher St Burger King,27.863451,-82.499407
4261,4261,UATC Flex Stop,28.065559,-82.429649
4264,4264,21st Av @ 43rd St,27.970399,-82.410455
4271,4271,N Boulevard @ Sligh Av,28.011124,-82.467729
4273,4273,University Mall,28.056296,-82.433441
4284,4284,Brandon Mall,27.931964,-82.324899
4285,4285,Palm River Rd @ 50th St,27.942878,-82.401185
4289,4289,Republica de Cuba @ Columbus Dr,27.966534,-82.444312
4296,4296,22nd St @ Columbus Dr,27.966642,-82.434652
4298,4298,22nd St @ Sligh Av,28.010204,-82.434755
4301,4301,Yukon Transfer Center,28.029655,-82.456416
4304,4304,M L King Jr Blvd @ N Boulevard,27.981474,-82.46783
4317,4317,N Boulevard@ Sligh Av,28.010961,-82.467901
4319,4319,Florida Av @ Bearss Av,28.086998,-82.459693
4329,4329,Fletcher Ave @ Dale Mabry Hwy,28.065758,-82.501659
4330,4330,Fletcher Av @ Florida Av,28.069382,-82.460195
4333,4333,J C Handly Park PnR,27.899361,-82.295315
4340,4340,Airport Rental Car Facility,27.96303,-82.53587
4341,4341,Westshore Plaza,27.948801,-82.525507
4345,4345,M L King Jr Blvd @ 40th St,27.981571,-82.414572
4346,4346,M L King Jr Blvd @ 40th St,27.981375,-82.413443
4347,4347,M L King Jr Blvd @ 22nd St,27.98159,-82.435426
4348,4348,M L King Jr Blvd @ 22nd St,27.98136,-82.435006
4350,4350,M L King Jr Blvd @ Florida Av,27.981367,-82.459637
4352,4352,M L King Jr Blvd @ Armenia Ave,27.981376,-82.484433
4356,4356,Tampa Bay Blvd @ Hills Comm College,27.973991,-82.510048
4357,4357,Tampa Bay Blvd @ Hills Comm College,27.974092,-82.508347
4360,4360,Hillsborough Av @ Hanley Rd,27.996452,-82.563084
4361,4361,Hillsborough Av @ Air Cargo Rd,27.996007,-82.523002
4363,4363,Brandon Regional Hospital,27.934071,-82.286533
4364,4364,Wal-Mart @ MLK and CR 579,27.981398,-82.301913
4365,4365,M L King Jr Blvd @ Orient Rd,27.981627,-82.372715
4368,4368,Sligh Av @ Rowlett Park Dr,28.010557,-82.429736
4404,4404,Busch Blvd @ Armenia Av,28.033531,-82.48388
4406,4406,Gunn Hwy @ Anderson Rd,28.061895,-82.543221
4409,4409,Jackson St @ Marion St,27.947539,-82.455771
4414,4414,Tampa General Hospital,27.93696,-82.457622
4429,4429,Special Ops Command,27.85264,-82.487345
4441,4441,Highland Ave @ M L King Jr Blvd,27.981728,-82.462159
4445,4445,22nd St @ 28th Av,27.975696,-82.434743
4446,4446,22nd St @ 32nd Av,27.978913,-82.434741
4451,4451,Florida Ave @ Fairbanks St,28.026555,-82.459286
4452,4452,Florida Ave @ Knollwood St,28.008211,-82.459472
4456,4456,Florida Ave @ Hamiller Ave,28.035165,-82.459303
4458,4458,Florida Ave @ Prince St,28.067528,-82.459233
4467,4467,Florida Av @ 145th Av,28.07951,-82.45958
4471,4471,Florida Ave @ 124th Ave,28.060462,-82.459495
4472,4472,Florida Ave @ Elder Ford,28.038918,-82.459572
4478,4478,Tampa St @ Amelia Ave,27.966262,-82.460971
4480,4480,Nebraska Av @ Palm Av,27.963105,-82.451173
4486,4486,Fletcher Ave @ 12th St,28.069134,-82.447408
4487,4487,Fletcher Ave @ Cecelia St,28.069127,-82.445538
4488,4488,Fletcher Ave @ Revere Landing Dr,28.069171,-82.440362
4491,4491,131st Av @ 23rd St,28.065432,-82.432457
4516,4516,Dale Mabry Hwy @ Ballast Point Blvd,27.889639,-82.506489
4521,4521,Dale Mabry Hwy @ Mango Ave,27.875288,-82.506243
4530,4530,Henderson Ave @ Nebraska Ave,27.959623,-82.450488
4531,4531,22nd St @ 13th Ave,27.964197,-82.434652
4532,4532,Columbus Dr @ 33rd St,27.966641,-82.423189
4534,4534,34th St @ Palifox St,27.986808,-82.42241
4539,4539,40th St @ 41st St,28.014023,-82.414487
4540,4540,40th St @ Humphrey  St,28.030532,-82.416245
4541,4541,McKinley Dr @ Busch Blvd,28.033303,-82.416214
4543,4543,McKinley Dr @ D.O.T. Bldg,28.050524,-82.416144
4551,4551,Spectrum Blvdr @ Embassy S,28.056167,-82.41709
4552,4552,McKinley Dr @ Fowler Av,28.053455,-82.416369
4553,4553,McKinley Dr @ D.O.T. Bldg,28.050852,-82.416382
4555,4555,McKinley Dr @ Linebaugh Av,28.03917,-82.416439
4559,4559,40th St @ Flora St,28.013652,-82.415054
4560,4560,40th St @ Jean St,28.004227,-82.414218
4561,4561,40th St @ Paris St,28.002667,-82.414227
4563,4563,40th St@ Comanche Av,27.997604,-82.414238
4566,4566,Osborne Av @ 35th Cir,27.98882,-82.421424
4571,4571,21st Av @ 35th St,27.970363,-82.420697
4579,4579,50th St @  M L King Jr Blvd,27.981969,-82.401218
4580,4580,56th St @ Commerce Park Blvd,27.986459,-82.394937
4581,4581,56th St @ Cone Rd,27.992825,-82.393272
4584,4584,56th St @ Hillsborough Av,27.997317,-82.393259
4585,4585,56th St @ Henry Av,28.00016,-82.393319
4586,4586,56th St @ 5805 56th St,28.00151,-82.393308
4587,4587,56th St @ Diana St,28.007233,-82.393295
4592,4592,56th St @ Bullard Pkwy,28.033801,-82.393365
4597,4597,50th St @ USF Orange Dr,28.056453,-82.401783
4598,4598,50th St @ USF Elm Dr,28.059235,-82.401796
4600,4600,50th St @ Bordeaux Vil,28.063651,-82.4018
4601,4601,50th St @ Holly Dr,28.066168,-82.401799
4603,4603,Holly Dr @ Holly K Apts,28.065791,-82.410021
4607,4607,Fletcher Ave @USF Banyan Cir,28.068972,-82.423058
4610,4610,Fletcher Ave @ John Knox Village,28.068962,-82.417036
4613,4613,Holly Dr @ USF Myrtle Dr,28.06561,-82.411441
4614,4614,Holly Dr @ Holly G Apts,28.065679,-82.409619
4616,4616,Holly Dr @ 50th St,28.066222,-82.403084
4617,4617,50th St @ Bordeaux Village Place,28.06347,-82.401973
4619,4619,50th St @ USF Elm Dr,28.059281,-82.401932
4621,4621,50th St @ Terrace Palm Apts,28.057294,-82.401931
4625,4625,56th St @ Temple Terrace City Hall,28.050537,-82.393849
4634,4634,Puritan Rd @ Whittier St,28.020385,-82.40033
4636,4636,56th St @ Sligh Ave,28.010628,-82.393878
4638,4638,56th St @ Shadowlawn Av,27.993956,-82.393664
4641,4641,56th St @  M L King Jr Blvd,27.981847,-82.401703
4644,4644,21st Av @ 32nd St,27.970466,-82.42408
4645,4645,21st Av @ 13th St,27.970594,-82.445264
4646,4646,21st Av @ 11th St,27.9706,-82.447859
4651,4651,Palm Av @ Taliaferro Av,27.962339,-82.452625
4653,4653,Fletcher Av @ 42nd St,28.069251,-82.413741
4656,4656,Fletcher Ave @ Magnolia Dr,28.069252,-82.420118
4657,4657,Fletcher Av @ 31st St,28.069296,-82.423514
4659,4659,Howard Av @ Dewey St,27.97101,-82.48276
4661,4661,Armenia Av @ 4021,27.975338,-82.484738
4662,4662,Armenia Ave @ St Isabel St,27.978255,-82.484691
4663,4663,M L King Blvd @ St Joseph Hospital,27.981447,-82.490234
4666,4666,Rome Av @ Johnston Av,27.984784,-82.476477
4667,4667,Rome Av @ School Light,27.986715,-82.476361
4668,4668,Rome Av @ Bedingfield Dr,27.992058,-82.476201
4670,4670,Sligh Av @ Willow Av,28.010652,-82.472592
4671,4671,N Boulevard @ Picnic Area North,28.014852,-82.467789
4682,4682,Fowler Ave @ 15th St,28.054343,-82.442292
4683,4683,22nd St @ 12401 University  Village,28.061566,-82.434495
4684,4684,22nd St @ University Lake,28.063422,-82.434485
4688,4688,22nd St @ 140th Av,28.073645,-82.434444
4689,4689,22nd St @ 142nd Av,28.075519,-82.434433
4701,4701,Bearss Av @ 17th St,28.08065,-82.441886
4703,4703,Bearss Av @ 19th St,28.080314,-82.439146
4706,4706,22nd St @ Villas,28.063647,-82.434598
4707,4707,22nd St @ 12401 University Village,28.061295,-82.4346
4708,4708,Fowler Ave @ 15th St,28.054672,-82.442068
4719,4719,N Boulevard @ Hollywood St,28.019517,-82.467813
4720,4720,N Boulevard @ Saftey Village,28.016429,-82.467854
4722,4722,Rome Av @ Hiawatha St,28.009485,-82.476126
4723,4723,Rome Av @ Knollwood St,28.007748,-82.476143
4724,4724,Rome Av @ School Light,27.987078,-82.476485
4727,4727,Armenia Av @ St Isabel St,27.97888,-82.484821
4729,4729,Armenia Av @ Fiesta Plaza,27.975175,-82.484838
4733,4733,7th Av @ 27th St,27.96013,-82.428941
4735,4735,7th Av @ 4100,27.9601,-82.412386
4736,4736,7th Av @ 47th St,27.960705,-82.406088
4740,4740,50th St @ Uceta Rd,27.958693,-82.401929
4747,4747,Palm River Rd @ 68th St,27.941021,-82.379259
4748,4748,78th St @ Parish Place,27.936071,-82.368741
4749,4749,78th St @ Carnegie Cir,27.933213,-82.368749
4751,4751,78th St @ Camden Field Pkwy,27.908044,-82.368768
4760,4760,Causeway Blvd @ Hwy 301,27.922493,-82.348271
4761,4761,Causeway Blvd @ Marsh Harbor Way,27.922841,-82.341551
4763,4763,Causeway Blvd @ Visconti Blvd,27.923102,-82.340144
4775,4775,78th St @ 49th Av,27.904278,-82.368603
4776,4776,78th St @ Camden Field Pkwy,27.908304,-82.368536
4778,4778,78th St @ 34th Av,27.91778,-82.36867
4781,4781,78th St @ Destin Dr,27.938938,-82.368578
4782,4782,Palm River Rd @ 76th St,27.941215,-82.371818
4784,4784,Palm River Rd @ Coconut Dr,27.941148,-82.375495
4789,4789,Palm River Rd @ 56th St,27.943129,-82.394613
4794,4794,7th Av @ 41st St   J W Conner Bldg,27.960255,-82.412427
4795,4795,7th Av @ 36th St,27.960256,-82.419817
4798,4798,Channelside Dr @ Harbor St,27.9536,-82.445577
4813,4813,15th St @ M L King Jr Blvd,27.980845,-82.442868
4816,4816,20th St @ Skagway Av,28.031539,-82.436645
4819,4819,15th St @ Shaw Elementary School,28.051923,-82.442777
4828,4828,Nebraska Ave @  140th Ave,28.074495,-82.451112
4830,4830,Nebraska Ave @ 145th Ave,28.078597,-82.451082
4831,4831,Nebraska Ave @ Skipper Rd,28.080196,-82.451187
4849,4849,15th St @ 130th Ave,28.064702,-82.442885
4850,4850,15th St @ College Park Ln,28.055513,-82.442903
4858,4858,14th St @ 29th Av,27.977021,-82.444322
4860,4860,14th St @ 26th Av,27.974277,-82.444333
4863,4863,14th St @ 21st Av,27.970756,-82.444258
4869,4869,Cass St @ N Boulevard,27.950236,-82.468043
4870,4870,Cypress St @ N Blvd,27.952044,-82.469126
4879,4879,Cass St @ N Boulevard,27.950073,-82.467992
4880,4880,Westshore Blvd @ North B St,27.946329,-82.524056
4882,4882,22nd St @ Giddens Av,27.995171,-82.43465
4884,4884,Rowlett Park Dr @ Theochem Lab,28.019758,-82.433332
4886,4886,22nd St @ 115th Av,28.052049,-82.434516
4888,4888,Rowlett Park Dr @ Theochem Lab,28.016063,-82.431822
4892,4892,22nd St @ Hanna Av,28.003466,-82.434812
4894,4894,22nd St @ Cayuga St,27.986632,-82.434773
4895,4895,22nd St @ 28th Av,27.975717,-82.434806
4906,4906,Busch Blvd @ Florida Av,28.032995,-82.459994
4908,4908,Waters Av @ Belara Lakes Apts,28.025388,-82.481912
4909,4909,Waters Av @ Lago Vista Dr,28.025517,-82.49498
4910,4910,Waters Av @ Dale Mabry Hwy W/S,28.025627,-82.506555
4911,4911,Waters Av @ Quail Oaks Apts,28.025592,-82.524632
4912,4912,Waters Av @ 4899 Lanier Co,28.025616,-82.526153
4913,4913,Waters Av @  Savarese Place,28.025654,-82.529809
4914,4914,Waters Av @ Comfort Suites,28.025746,-82.534664
4915,4915,Waters Av @ Sitka St,28.025791,-82.54738
4916,4916,Waters Av @ Rustic Dr,28.025966,-82.559208
4917,4917,Waters Av @ Hulsey Rd,28.025932,-82.557019
4919,4919,15th St @ 124th Ave,28.060244,-82.442747
4920,4920,Waters Av @ Baywater Apts,28.025669,-82.55715
4921,4921,Waters Av @ JR Manor Dr,28.025627,-82.554728
4923,4923,Waters Av @ Florida Mining Blvd,28.025448,-82.533641
4924,4924,Waters Av @ 4030,28.025267,-82.511135
4925,4925,Busch Blvd @ N Boulevard,28.033039,-82.467625
4929,4929,MacDill Av @ Stovall St,27.916349,-82.493737
4951,4951,Euclid Ave @ Waverly Cir,27.908577,-82.494885
4953,4953,MacDill @ Bayshore Terrace Condos,27.91404,-82.493583
4959,4959,Kennedy Blvd @ Ashley Dr,27.947022,-82.459821
4963,4963,22nd St @ Water Av,28.02512,-82.434586
4964,4964,East Riverhills Dr. @ Rowlett Park,28.02745,-82.4324
4965,4965,River Hills Dr @ 26th St,28.028724,-82.43058
4966,4966,30th St @ 97th Av,28.038276,-82.426115
4968,4968,30th St @ Pointsettia Av,28.041295,-82.426117
4969,4969,30th St @ University Center,28.04482,-82.42609
4970,4970,30th St @ Times Customer Service,28.045794,-82.426061
4971,4971,30th St @ 109th Av,28.046904,-82.426112
4973,4973,30th St @ Railroad Crossing,28.052574,-82.426031
4974,4974,Bruce B Downs Blvd @ USF Pine Dr,28.056123,-82.425899
4975,4975,Bruce B Downs Blvd @ Campus Hill Dr,28.060645,-82.425883
4977,4977,Bruce B Downs Blvd @ 132nd Ave,28.0675,-82.42626
4978,4978,Bruce B Downs Blvd @ Campus Hill Dr,28.060433,-82.426205
4979,4979,Bruce B Downs Blvd @ USF Pine Dr,28.057753,-82.426254
4980,4980,30th St @ Railroad Crossing,28.053833,-82.426315
4981,4981,30th St @ Foxfire II Apts,28.045507,-82.426277
4984,4984,22nd St @ Rowlett Park Dr,28.027365,-82.432632
4985,4985,22nd St @ Waters Av,28.025554,-82.434517
4986,4986,22nd St @ Rowlett Park Dr,28.022692,-82.435186
4987,4987,30th St @ Pocahontas Av,28.00888,-82.42653
4989,4989,30th St @ Idlewild Av,28.001078,-82.426527
4993,4993,Kennedy Blvd @ Grady Av,27.944972,-82.510287
4994,4994,Westshore Blvd @ 1311 N,27.95478,-82.523994
4996,4996,Westshore Blvd @ Main St,27.957334,-82.523976
4997,4997,Spruce St @ Westshore Blvd,27.959987,-82.524951
4998,4998,Spruce St @ O'Brien St,27.96016,-82.531551
4999,4999,TPA Internat'l  Airport Post Office,27.968271,-82.538498
5002,5002,Hanley Rd @ 6000 (School),28.001552,-82.562618
5003,5003,Hanley Rd @ Palmera Point,28.0195,-82.562376
5004,5004,Hanley Rd @ Winging Way Dr,28.023445,-82.562224
5005,5005,Hanley Rd @ Palmera Pointe,28.019523,-82.562623
5011,5011,Spruce St @ O'Brien St,27.959673,-82.531623
5013,5013,Westshore Blvd @ 1300,27.954517,-82.524287
5014,5014,Westshore Blvd @ Cypress St,27.951446,-82.524315
5018,5018,Fletcher Av @ 1205,28.068899,-82.470216
5019,5019,Fletcher Av @ Forest Hills Dr,28.06944,-82.473495
5020,5020,Fletcher Av @ 2121,28.06856,-82.48052
5021,5021,Fletcher Av @ Armenia Av,28.066205,-82.483725
5022,5022,Fletcher Av @ Orange Sunset Dr,28.065801,-82.489068
5025,5025,Fletcher Ave @ Tifton Dr,28.065673,-82.492292
5027,5027,Fletcher Av @ 2122,28.06824,-82.48063
5028,5028,Fletcher Av @ 1208,28.068762,-82.470344
5029,5029,Fletcher Av @ Florida Ave,28.06925,-82.461252
5030,5030,Fletcher Ave @ I-275,28.069186,-82.456693
5043,5043,M L King Jr Blvd @ 29th St,27.981506,-82.427809
5044,5044,M L King Jr Blvd @ 17th St,27.981563,-82.439928
5045,5045,M L King Jr Blvd @ Florida Av ES,27.98159,-82.458672
5046,5046,M L King Jr Blvd @ 2125 M L King Jr Blvd,27.981349,-82.481676
5047,5047,Dale Mabry Hwy @ Jetton Av,27.932674,-82.505863
5049,5049,Dale Mabry Hwy @ Angeles St,27.927701,-82.505758
5050,5050,MLK Jr Blvd @ Clark Ave,27.981597,-82.512627
5051,5051,M L King Jr Blvd @ 24th St,27.981351,-82.432848
5052,5052,M L King Jr Blvd @ 26th St,27.981323,-82.430792
5053,5053,M L King Jr Blvd @ 29th St,27.981287,-82.42824
5055,5055,Harney Rd @ Park East Blvd,27.998463,-82.383462
5058,5058,Harney Rd @ Tampa Bay Tech,28.008357,-82.377672
5097,5097,Harney Rd @ Tampa Bay Tech,28.008542,-82.377703
5099,5099,Lumsden Rd @ Providence Rd,27.923068,-82.316268
5100,5100,Lumsden Rd @ Heather Lakes Bl West,27.923091,-82.312989
5101,5101,Lumsden Rd @ Heather Lakes Bl East,27.923102,-82.30645
5102,5102,Lumsden Rd @ Brandon Parkway,27.92305,-82.301775
5103,5103,Kings Av @ Southwood Cove,27.903477,-82.294038
5104,5104,Bloomingdale @ Bloomingdale Villas,27.893565,-82.282275
5105,5105,Bloomingdale Av @ Bryan Rd,27.89354,-82.277692
5106,5106,Bell Shoals @   Starwood  @ WalMart,27.891009,-82.26937
5108,5108,Bell Shoals Rd @ Garnet Dr,27.879305,-82.269383
5110,5110,Glenhaven Dr @ Bell Shoals Rd,27.875707,-82.268561
5111,5111,Glenhaven Dr @ Natures Way Blvd,27.876608,-82.265595
5112,5112,Natures Way Blvd @ Elm Grove Ln,27.878704,-82.266108
5113,5113,Natures Way Blvd @ Dunaire Dr,27.880995,-82.266318
5114,5114,Natures Way Blvd @ Callista Ln,27.883369,-82.265862
5117,5117,Bell Shoals Rd @ Rosemead Ln,27.88752,-82.26919
5118,5118,Bell Shoals  @ Starwood  @ Sweetbay,27.891769,-82.269197
5119,5119,Bloomingdale Av @ Bryan Rd,27.893728,-82.277272
5120,5120,Bloomingdale @ Bloomingdale Villas,27.89377,-82.28229
5121,5121,Kings Av @ Echo Dr,27.910143,-82.293858
5122,5122,Kings Av @ Tradewind Dr,27.917861,-82.293844
5123,5123,Kings Av @ Oaks Park Place,27.920594,-82.293783
5124,5124,Lumsden Rd @ Brandon Parkway,27.923424,-82.303054
5125,5125,Lumsden Rd @ Paddock Club Dr,27.923446,-82.306549
5126,5126,Lumsden Rd @ Kensington Ridge Blvd,27.923421,-82.313419
5130,5130,Dale Mabry Hwy @ Carrollwood Place,28.106823,-82.502652
5131,5131,Dale Mabry Hwy @ Northdale Blvd,28.092841,-82.502507
5156,5156,Gunn Hwy @Plantation Sugarmill Dr E,28.05131,-82.522803
5164,5164,US Hwy 41 @ Shirley Av,27.84463,-82.38171
5166,5166,US Hwy 41 @ Symmes Rd,27.834534,-82.381912
5167,5167,US Hwy 41 @ Mabrey Av,27.827132,-82.382028
5168,5168,US Hwy 41 @ Ohio St,27.822058,-82.382254
5175,5175,US Hwy 41 @ Isabel Av,27.830803,-82.381643
5176,5176,US Hwy 41 @  Cedar Av,27.841936,-82.381482
5177,5177,US Hwy 41 @ Shirley Av,27.844632,-82.381531
5178,5178,Gibsonton Dr @ Ethel St,27.849658,-82.379112
5180,5180,Gibsonton Dr @ Pine St,27.849633,-82.35705
5181,5181,Gibsonton Dr @ Martin Rd,27.8497,-82.364085
5184,5184,Davis Blvd @ One Davis Medical Bldg,27.936527,-82.459805
5220,5220,Himes Av @ Ohio Av,27.97719,-82.501546
5221,5221,Himes Av @ Heiter St,27.974951,-82.501522
5222,5222,Lois Av @ Woodlawn Ave,27.9757,-82.513604
5223,5223,Lois Av @ Kentucky Ave,27.978336,-82.513566
5225,5225,Hillsborough Av @ McDonalds 4333,27.996283,-82.51745
5226,5226,Hillsborough Av @ Sherwin Williams,27.996336,-82.524837
5238,5238,N Boulevard @ Arch St,27.954313,-82.4683
5246,5246,Armenia Av @ Crest Av,27.993709,-82.484411
5248,5248,Armenia Av @ 8411 Windsor Manor,28.028288,-82.484131
5249,5249,Armenia Ave @ Marianna St,28.037217,-82.482889
5250,5250,Armenia Av @ Rambla St,28.034228,-82.484236
5251,5251,Armenia Av @ Skagway Av,28.031751,-82.484192
5252,5252,Armenia Av @ Windsor Manor Apts,28.026187,-82.484333
5253,5253,Armenia Av @ Silver Lake Av,28.022981,-82.484371
5254,5254,Armenia Av @ Cluster Av,28.012119,-82.484751
5264,5264,18th Av @ 34th St,27.968269,-82.421893
5265,5265,17th Av @ 15th St,27.96732,-82.44334
5267,5267,Himes Av @ Leroy St,27.972154,-82.501551
5268,5268,Columbus Dr @ Gomez Av,27.966593,-82.491237
5276,5276,Orient Rd @ I-4 Fairground Entrance,27.988367,-82.373037
5277,5277,Orient Rd @ Seminole Complex,27.992486,-82.37298
5280,5280,Hillsborough Av @ 6804,27.99634,-82.377852
5281,5281,Hillsborough Av @ Walton Way,27.996341,-82.380462
5282,5282,Hillsborough Av @ 39th St,27.996146,-82.415434
5283,5283,Hillsborough Av @ Railroad Crossing,27.996149,-82.4292
5284,5284,Hillsborough Av @ 24th St,27.996131,-82.432361
5285,5285,Hillsborough Av @ 9th Av,27.99614,-82.449632
5290,5290,Hillsborough Av  @ Mendenhall Dr,27.996078,-82.478532
5292,5292,Hillsborough Av @ Howard Av,27.996122,-82.481814
5295,5295,Hillsborough Av @ 3909,27.996203,-82.507826
5296,5296,Hillsborough Av @ 4021,27.996235,-82.51127
5299,5299,Hillsborough Av @ 7023,27.996661,-82.559418
5312,5312,Sheldon Rd @ Bay Plaza,27.998277,-82.583032
5313,5313,Sheldon Rd @ Mohr Rd,28.002644,-82.583123
5314,5314,Sheldon Rd @ Lighthouse Landing Ct,28.005113,-82.58311
5316,5316,Sheldon Rd @ Mayflower Rd,28.008513,-82.583052
5317,5317,Sheldon Rd @ Fountain Av,28.010496,-82.583066
5318,5318,Sheldon Rd @ Orville Lane,28.013059,-82.582999
5319,5319,Sheldon Rd @ Hamilton Ave,28.014888,-82.582962
5321,5321,Sheldon Rd @ Crown Blvd,28.019969,-82.58295
5323,5323,Sheldon @  8023 Sheldon Shore Apts,28.022921,-82.582925
5324,5324,Sheldon Rd @ Waters Av,28.026625,-82.58284
5325,5325,Waters Ave @ Riverwood Blvd,28.025886,-82.579697
5327,5327,Waters Ave @ Pinehurst Dr,28.025861,-82.571611
5331,5331,BJ's @ Waters Av @ Hanley Rd,28.026041,-82.564447
5334,5334,Waters Ave @ Shell Dr,28.026117,-82.576465
5335,5335,Waters Ave @ River Oaks Dr,28.026088,-82.579686
5336,5336,Sheldon Rd @ Waters Av,28.024824,-82.583211
5337,5337,Sheldon Rd @ Woodlake Blvd,28.022821,-82.583265
5338,5338,Sheldon Rd @ Crown Blvd,28.019991,-82.583282
5341,5341,Sheldon Rd @ Hamilton Av,28.015196,-82.583298
5342,5342,Sheldon Rd @ Flora St,28.013147,-82.583332
5343,5343,Sheldon Rd @ Westbay Blvd,28.010884,-82.583409
5344,5344,Sheldon Rd @ Brennan Cir,28.008326,-82.583408
5346,5346,Sheldon Rd @ Island Club Apt SS,28.004392,-82.583481
5347,5347,Sheldon Rd @ Mohr Rd,28.003015,-82.583499
5348,5348,Sheldon Rd @ Memorial Hwy,27.999746,-82.583534
5349,5349,Hillsborough Av @ Ross Plaza,27.996629,-82.580417
5362,5362,Hillsborough Av @ 7012,27.996439,-82.559243
5363,5363,Hillsborough Av @ Sawyer Rd,27.996426,-82.557181
5364,5364,Hillsborough Av @ Golden Dr,27.996397,-82.553123
5365,5365,Hillsborough Av @ Benjamin Rd,27.99622,-82.542264
5366,5366,Hillsborough Av @  5556,27.9962,-82.537742
5368,5368,Hillsborough Av @ Hesperides St,27.995974,-82.518818
5369,5369,Hillsborough Av @ Bally 4402,27.995967,-82.516195
5371,5371,Hillsborough Av @ 3902,27.99589,-82.510056
5372,5372,Hillsborough Av @ Church Av,27.995837,-82.507443
5379,5379,Hillsborough Av @ Ola Av,27.995965,-82.464239
5380,5380,Hillsborough Av @ 11th St,27.995994,-82.448125
5382,5382,Hillsborough Av @ Market Place,27.995992,-82.431624
5383,5383,Hillsborough Av @ Railroad Crossing,27.995998,-82.429114
5385,5385,Tampa St @ Brorein St,27.943644,-82.457264
5414,5414,US Hwy 41 @ St Anne's Church,27.729562,-82.433594
5415,5415,US Hwy 41 @ Coastal Mart (1202),27.729729,-82.43396
5423,5423,14th Av SE @ Joyce Ely Health   Cen,27.705974,-82.431282
5443,5443,Himes Av @ Walnut St,27.960574,-82.501342
5446,5446,Himes Av @ New Orleans Av,27.990236,-82.501031
5447,5447,Himes Av @ 5223,27.99265,-82.50098
5448,5448,Himes Av @ Ashley Square Apts,27.998341,-82.50082
5451,5451,Himes Av @ Humphrey St,28.029212,-82.500649
5452,5452,Gunn Hwy @ Premier North Dr,28.038617,-82.507994
5453,5453,Dale Mabry Hwy @ Linebaugh Av,28.040249,-82.504671
5454,5454,Dale Mabry Hwy @ 11511,28.053415,-82.50388
5455,5455,Dale Mabry Hwy @ Countrywood Apts,28.05941,-82.503459
5457,5457,Dale Mabry Hwy @ Colby Rd F/S,28.056376,-82.50367
5458,5458,Orange Grove Dr @ Stall Rd,28.062753,-82.500491
5461,5461,Dale Mabry Hwy @ Grand Plaza North,28.080153,-82.506589
5462,5462,Dale Mabry @ Carrollwood Springs Bl,28.088257,-82.50344
5465,5465,Dale Mabry Hwy @ Gaither High Sch,28.101368,-82.502112
5470,5470,Gunn Hwy @ Premier North Dr,28.038544,-82.508288
5473,5473,Himes Av @ Busch Blvd S,28.035443,-82.500705
5476,5476,Himes Av @ Sitka St,28.021615,-82.500806
5477,5477,Himes Av @ Coopers Pond Apts,28.005405,-82.500946
5478,5478,Himes Av @ Courtney Apts,27.998794,-82.500982
5479,5479,Himes Av @ 5223,27.992708,-82.50114
5480,5480,Himes Av @ New Orleans Av,27.989986,-82.501293
5484,5484,Spruce St @ Marie Av,27.959549,-82.504781
5509,5509,Busch Blvd @ 2308,28.032708,-82.432304
5510,5510,Busch Blvd @ Willow Av,28.033476,-82.47161
5512,5512,Busch Blvd @ Oakleaf Av,28.033496,-82.47892
5514,5514,Busch Blvd @ Twin Lakes Blvd,28.035997,-82.492258
5515,5515,Busch Blvd @ Himes Av,28.036377,-82.500411
5516,5516,Gunn Hwy @ Hubert Av,28.045775,-82.515445
5517,5517,Gunn Hwy @ Casey Rd,28.048141,-82.51821
5518,5518,Gunn Hwy @ Country Run Rd,28.052351,-82.523706
5519,5519,Gunn Hwy @ Marbrisa Apts,28.05548,-82.528291
5520,5520,Gunn Hwy @ Four Oaks Rd,28.057225,-82.531841
5521,5521,Gunn Hwy @ Hampton Park Blvd,28.059186,-82.536
5523,5523,Gunn Hwy @ Mullis City Way,28.044354,-82.513715
5524,5524,Gunn Hwy @ Henderson Rd,28.063791,-82.549488
5525,5525,Gunn Hwy @ Normandie Rd,28.065,-82.553484
5526,5526,Gunn Hwy @ Cain Rd,28.065611,-82.557662
5527,5527,Gunn Hwy @ Landing Place Rd,28.065595,-82.560624
5529,5529,Gunn Hwy @ Community Campus Dr,28.065368,-82.56415
5531,5531,Gunn Hwy @ Cain Rd,28.065266,-82.558037
5532,5532,Gunn Hwy @ Normandie Rd,28.064529,-82.55319
5533,5533,Gunn Hwy @ Henderson Rd,28.063609,-82.550117
5534,5534,Gunn Hwy @ Wood Trail Blvd,28.06255,-82.546462
5535,5535,Gunn Hwy Hampton Park Blvd,28.05899,-82.53613
5536,5536,Gunn Hwy @ Nixon St,28.055868,-82.52966
5537,5537,Gunn Hwy @ Colonnade Exec Ctr,28.055411,-82.528775
5538,5538,Gunn Hwy @ Casey Rd,28.048045,-82.518502
5539,5539,Gunn Hwy @ Hubert Av,28.045234,-82.515102
5540,5540,Gunn Hwy @ Mullis City  Way,28.043947,-82.513628
5541,5541,Busch Blvd @ Himes Av ES,28.036229,-82.50019
5542,5542,Busch Blvd @ Twin Lakes Blvd,28.035864,-82.491983
5545,5545,Busch Blvd @ Oakleaf Av,28.033307,-82.479117
5547,5547,Busch Blvd @ Willow Av,28.033362,-82.471698
5550,5550,Busch Blvd @ Elmer St,28.032409,-82.440131
5551,5551,Busch Blvd @ 19th St,28.032391,-82.437922
5552,5552,Busch Blvd @ Traveler's Inn,28.032464,-82.431524
5554,5554,Busch Blvd @ 29th St,28.032462,-82.426948
5556,5556,Busch Blvd @ 40th St,28.032452,-82.415647
5557,5557,Busch Blvd @ 4200,28.032451,-82.4136
5559,5559,Busch Blvd @ Broadmoor Apts,28.03244,-82.405462
5562,5562,56th St @ Kenny Dr,28.015792,-82.393658
5563,5563,M L King Blvd @ I-4,27.981491,-82.385885
5565,5565,M L King Jr Blvd @ Fairview Park Dr,27.981305,-82.376759
5566,5566,M L King Jr Blvd @ Orient Rd E,27.981303,-82.372597
5568,5568,M L King Jr Blvd @ Beechwood Blvd,27.981318,-82.367361
5569,5569,M L King Jr Blvd @ Danny Bryan Rd,27.981315,-82.363644
5570,5570,M L King Jr Blvd @ US Hwy 301  WS,27.981322,-82.361345
5571,5571,M L King Jr Blvd @ US Hwy 301 ES,27.981302,-82.357891
5572,5572,M L King Jr Blvd @ Bypass Canal,27.981316,-82.352163
5573,5573,M L King Jr Blvd @ Coconut Palm Dr,27.981208,-82.349305
5574,5574,M L King Jr Blvd @ Riga Blvd,27.981137,-82.345872
5575,5575,M L King Jr Blvd @ Cragmont Dr,27.981187,-82.341172
5576,5576,M L King Jr  Blvd @ Falkenburg Rd,27.980893,-82.335357
5577,5577,M L King Jr Blvd @ Sabal Park Ctr,27.981145,-82.3341
5578,5578,M L King Jr Blvd @ Williams Rd,27.981103,-82.319638
5579,5579,M L King Jr Blvd @ Lakewood Dr,27.981381,-82.310208
5580,5580,M L King Jr Blvd @ Hewitt St,27.981386,-82.306856
5581,5581,M L King Blvd @ CR 579,27.981725,-82.302662
5595,5595,Oakfield Dr @ Hilltop Rd,27.933943,-82.305988
5596,5596,Oakfield Dr @ Buckingham Place,27.93413,-82.296017
5597,5597,Oakfield Dr @ Kings Ave,27.934203,-82.292929
5598,5598,Oakfield Dr @ Sunlake Apts,27.933981,-82.299834
5599,5599,Parsons Ave @ Robertson St,27.936144,-82.285679
5600,5600,Brandon Blvd @ Edwards Ave,27.937819,-82.287001
5604,5604,Brandon Blvd @ Lakeside Dr,27.93789,-82.30053
5605,5605,Brandon Blvd @ Limona Rd,27.937893,-82.303813
5616,5616,M L King Jr Blvd @ Peek St,27.981734,-82.304684
5617,5617,M L King Jr Blvd @ Orange St,27.981702,-82.307629
5618,5618,M L King Jr Blvd @ Lakewood Dr,27.98168,-82.310935
5619,5619,M L King Jr Blvd @ Williams Rd,27.981438,-82.319171
5621,5621,M L King Jr Blvd @ McLane Dr,27.981455,-82.336211
5622,5622,M L King Jr Blvd @ Wedgemere Dr,27.981454,-82.339661
5623,5623,M L King Jr Blvd @ Cragmont Dr,27.98146,-82.341716
5624,5624,M L King Jr Blvd @ Riga Blvd,27.981411,-82.346721
5625,5625,M L King Jr Blvd @ Coconut Palm,27.981496,-82.350328
5626,5626,M L King Jr Blvd @ Bypass Canal,27.981611,-82.352129
5627,5627,M L King Jr Blvd @ US Hwy 301 ES,27.981603,-82.358588
5628,5628,M L King Jr Blvd @ US Hwy 301 WS,27.981636,-82.360662
5629,5629,M L King Jr Blvd @ Danny Bryan Rd,27.981628,-82.364234
5630,5630,M L King Jr Blvd @ Cromwell Dr,27.981601,-82.367811
5632,5632,M L King Jr Blvd @ 69th St,27.981584,-82.377383
5633,5633,M L King Jr Blvd @ 6606,27.981642,-82.380708
5634,5634,M L King Blvd @ Interstate Ind Park,27.981561,-82.388023
5635,5635,M L King Jr Blvd @ Carroway St,27.98153,-82.391179
5636,5636,M L King Jr Blvd @ 54th St,27.981527,-82.395661
5638,5638,M L King Jr Blvd @ Phillips St,27.981552,-82.399608
5639,5639,Cleveland St @ Melville Ave,27.943353,-82.479754
5640,5640,Manhattan Ave @ Bay View Ave,27.905131,-82.518479
5641,5641,Manhattan Av @ 4315,27.901694,-82.518467
5643,5643,Manhattan Av @ La Villa Lane,27.898231,-82.518458
5644,5644,Manhattan Av @ Bay Av,27.87932,-82.518699
5645,5645,Manhattan Av @ Mango Av,27.875524,-82.518687
5677,5677,Manhattan Av @ McCoy St,27.869654,-82.518477
5680,5680,Manhattan Av @ Paul Av,27.891423,-82.518306
5681,5681,Euclid Av @ Coolidge St,27.908671,-82.517259
5685,5685,Swann Av @ Gomez  Av,27.937374,-82.49124
5687,5687,Platt St @ Melville Av,27.94179,-82.479935
5695,5695,SR 60 @ Brandon Town Center Dr,27.938818,-82.323119
5697,5697,Providence Rd @ Windingwood Av,27.919731,-82.31884
5698,5698,Providence Rd @ Sweetridge Av,27.916047,-82.318843
5699,5699,Providence Rd @ Providence Lake Blvd,27.911558,-82.318865
5701,5701,Providence Rd @ Purity Lane,27.901467,-82.318647
5702,5702,US Hwy 301 @ Balm Riverview Rd,27.865194,-82.326769
5703,5703,Gibsonton Dr @ US Hwy 301,27.857223,-82.327892
5704,5704,Gibsonton Dr @ Gibsonton St,27.855531,-82.339706
5705,5705,Gibsonton  @ Gibsonton Elem School,27.84986,-82.36851
5706,5706,US Hwy 41 @ Dimare Packing,27.759138,-82.401191
5707,5707,US Hwy 41 @ Dickman Dr,27.718124,-82.434251
5714,5714,US Hwy 41 @ Dickman Dr,27.718741,-82.433907
5715,5715,US Hwy 41 @ Dimare Packing,27.758977,-82.400995
5716,5716,US Hwy 41 @ P.T.G. Packing,27.784678,-82.3842
5717,5717,US Hwy 41 @ Pembroke Rd,27.80739,-82.3841
5718,5718,US Hwy 41 @ Beach Av  (Twin Oaks),27.840939,-82.381483
5719,5719,Gibsonton Dr @ Massachusetts St,27.849654,-82.380425
5720,5720,Gibsonton Dr @ Davis St,27.849661,-82.376694
5721,5721,Gibsonton @ Gibsonton Elem School,27.849658,-82.368921
5722,5722,Gibsonton Dr @ Prevatt St,27.84951,-82.353941
5723,5723,Gibsonton Dr @ Fren Hill Dr,27.855187,-82.339707
5724,5724,Gibsonton Dr @ Oak Ridge Av,27.856949,-82.329994
5725,5725,US Hwy 301 @ Rivercrest Dr,27.862164,-82.326432
5731,5731,Providence Rd @ Purity Lane,27.900995,-82.318455
5732,5732,Providence @ Providence Bapt Church,27.897646,-82.31853
5733,5733,Providence Rd @ Lakewood Dr,27.92554,-82.315384
5741,5741,Sheldon Rd @ Fawn Ridge Blvd,28.062122,-82.582732
5742,5742,Sheldon Rd @ Westwind D,28.058439,-82.582744
5743,5743,Sheldon Rd @ Shelodn West Dr,28.05603,-82.582747
5744,5744,Sheldon Rd @ S Meadowview  Cr,28.053392,-82.582818
5745,5745,Sheldon Rd @ Gardner Rd,28.051059,-82.582864
5747,5747,Sheldon @ N Hills Co Health Ctr,28.038541,-82.583042
5748,5748,Sheldon Rd @ Redwood Blvd,28.036522,-82.583069
5749,5749,Sheldon Rd @ Meadow Pkwy,28.033244,-82.583145
5750,5750,Dale Mabry Hwy @ Stall Rd F/S,28.061537,-82.503947
5751,5751,Dale Mabry Hwy @ 12000,28.059027,-82.50381
5752,5752,Dale Mabry Hwy @ Colby Rd N/S,28.056545,-82.50406
5754,5754,Dale Mabry Hwy @ 11500,28.053319,-82.504196
5755,5755,Dale Mabry Hwy @ 11210,28.050735,-82.504405
5756,5756,Dale Mabry Hwy @ 11010,28.049259,-82.504475
5757,5757,Dale Mabry Hwy @ 10444,28.047112,-82.504676
5758,5758,Dale Mabry Hwy @ Lake Carroll Way,28.043629,-82.504905
5759,5759,Dale Mabry Hwy @ 10004,28.041513,-82.505016
5761,5761,Sheldon Rd @ Fountain Estates,28.030935,-82.583181
5763,5763,Waters Ave @ Northbridge Blvd,28.025856,-82.575309
5764,5764,Waters Ave @ Royal Sand Cir,28.025787,-82.56547
5765,5765,Waters Ave @ Sheldon Rd,28.026107,-82.583943
5767,5767,Sheldon Rd @ Fountain Estates,28.031479,-82.582777
5769,5769,Sheldon Rd @ Countryside Village Blvd,28.033715,-82.58274
5770,5770,Sheldon Rd @ Redwood Blvd,28.036468,-82.582674
5771,5771,Sheldon @ N Hills Co Health Ctr,28.038696,-82.582617
5773,5773,Sheldon Rd @ Gardner Rd,28.050748,-82.582505
5774,5774,Sheldon Rd @ S Meadowview Cr,28.052949,-82.582459
5775,5775,Sheldon Rd @ Sheldon West Dr,28.056671,-82.582394
5776,5776,Sheldon Rd @ Westwind Dr,28.057875,-82.582396
5777,5777,Sheldon Rd @ Fawn Ridge Blvd,28.061877,-82.582362
5778,5778,Palm Av @ Florence St,27.962186,-82.450144
5779,5779,Palm Av @ Florence St,27.962445,-82.449714
5798,5798,Tampa St @ Kennedy Blvd,27.947149,-82.458768
5802,5802,US Hwy 301 @ Rivercrest Dr,27.860293,-82.326958
5809,5809,Ruskin Neighborhood Service Center,27.70568,-82.431687
5815,5815,8873 Hidden River Pkwy,28.071297,-82.358667
5816,5816,US Hwy 41 @ South Bay Family Center,27.726563,-82.43394
5821,5821,14th Av SE @ 9th St SE,27.705794,-82.422589
5828,5828,14th Av SE @ 21st St SE,27.705712,-82.406822
5835,5835,North St @ 12th St,27.716076,-82.31494
5853,5853,Brandon HCC @ Nancy Watkins Dr,27.970814,-82.328321
5863,5863,4th Ave @ 21st St,27.958028,-82.435681
5864,5864,21st St @ 4th Ave,27.958354,-82.435599
5870,5870,Tampa St @ Cass St,27.950777,-82.46033
5871,5871,Tampa St @ Zack St,27.949395,-82.459771
5883,5883,Florida Ave @ Whiting St,27.945263,-82.455828
5884,5884,Florida Ave @ Kennedy Blvd,27.947911,-82.457007
5887,5887,Fletcher Ave @ Livingston Ave,28.069115,-82.430649
5890,5890,56th St @ Fletcher Ave,28.068128,-82.393833
5891,5891,56th St @ 131st Ave,28.066159,-82.393819
5894,5894,56th St @ 131st Ave,28.066183,-82.393516
5930,5930,Falkenburg Rd @ Broadway Av,27.973158,-82.335204
5931,5931,Nancy Watkins Dr @ Leroy Ave,27.970248,-82.334159
5932,5932,Falkenburg Rd @ Windhorst Rd,27.962978,-82.335348
5933,5933,Falkenburg Rd @ Fisher Rd,27.959247,-82.335281
5934,5934,Falkenburg Rd @ Cedar Run,27.955981,-82.335216
5935,5935,Woodberry Rd @ Falkenburg Rd,27.952072,-82.334207
5936,5936,Woodberrry Rd @ Hobbs St,27.952104,-82.329813
5937,5937,Grand Regency Blvd @ Tealwood Dr,27.951483,-82.325511
5938,5938,Grand Regency Bl @ Atlantic Bus Pk,27.945334,-82.32642
5939,5939,Grand Regency Bl @ Lake Kathy Rd,27.947082,-82.325568
5940,5940,Grand Regency Blvd @ Vildibill Dr,27.942127,-82.325554
5941,5941,Brandon Blvd @ Knights Ave,27.937563,-82.289989
5945,5945,Town Center Blvd @ Providence Rd,27.925995,-82.317195
5946,5946,Town Center Blvd @ Providence Rd,27.925769,-82.317458
5947,5947,Grand Regency Blvd @ Vildibill Dr,27.943089,-82.325342
5948,5948,Grand Regency Blvd @ Lake Kathy St,27.947108,-82.325244
5950,5950,Grand Regency Blvd @ Pineberry St,27.951148,-82.325309
5951,5951,Woodberry Rd @ Hobbs St,27.952268,-82.330441
5952,5952,Woodberry Rd @ Falkenburg Rd,27.952235,-82.334693
5953,5953,Falkenburg Rd @ Cedar Run,27.955772,-82.335027
5954,5954,Falkenburg Rd @ Fisher Av,27.95827,-82.335043
5955,5955,Falkenburg Rd @ Windhorst Rd,27.963249,-82.335081
5956,5956,Falkenburg Rd @ Columbus Dr,27.966588,-82.335072
5957,5957,Falkenburg Rd @ Nancy Watkins Dr,27.969809,-82.334932
5958,5958,Falkenburg Rd @ Broadway Av,27.973457,-82.33489
6007,6007,4th Av @ 19th St,27.958157,-82.437837
6023,6023,M L King Jr Blvd @ Parsons Av,27.981396,-82.286802
6026,6026,M L King Jr Blvd @ Lake Dr,27.98121,-82.296627
6039,6039,Parsons Av @ Sadie St,27.94231,-82.28593
6041,6041,Parsons Ave @ Robertson St,27.936018,-82.285881
6043,6043,Oakfield Dr @ Noland Dr,27.93316,-82.290818
6045,6045,Oakfield Dr @ Buckingham Place,27.934278,-82.296156
6047,6047,Oakfield Dr @ Pauls Dr,27.934125,-82.301895
6048,6048,Oakfield Dr @ Hilltop Rd,27.934119,-82.306012
6049,6049,Oakfield Dr @ Morrison Rd,27.934346,-82.309389
6051,6051,56th St @ Commerce Park Blvd,27.985715,-82.39683
6053,6053,Brandon Blvd @ Kings Ave,27.937467,-82.292317
6263,6263,Gunn Hwy @Plantation/Sugarmill Dr W,28.052839,-82.524964
6497,6497,University Area Transit Center,28.066455,-82.429649
6519,6519,78th St @ Temple Terrace Hwy,28.032177,-82.368909
6527,6527,Fletcher Ave @ 50th St,28.06931,-82.401747
6550,6550,Fletcher Ave @ 50th St,28.069039,-82.401433
6555,6555,Busch Blvd @ 50th St,28.032484,-82.401784
6575,6575,Nebraska Ave @ 138th Ave,28.073125,-82.451097
6576,6576,Skipper Rd @ 1250 Skipper Rd,28.080354,-82.446185
6577,6577,Skipper Rd @ Skipper Rd,28.080526,-82.443234
6593,6593,Waters Av @ Arden Av,28.025254,-82.452686
6597,6597,Linebaugh Ave @ Vineland St,28.039851,-82.456023
6599,6599,Linebaugh Ave @ Nebraska Ave,28.039843,-82.450651
6601,6601,Linebaugh Ave @ 12th St,28.039825,-82.447611
6603,6603,Linebaugh Ave @  15th St,28.039807,-82.44302
6606,6606,Linebaugh Ave @ Lantana St,28.039947,-82.446717
6608,6608,Linebaugh Ave @ Nebraska Ave,28.039983,-82.450975
6610,6610,Linebaugh Ave @ Vineland St,28.039979,-82.455826
6611,6611,Linebaugh Ave @ Florida Ave,28.039995,-82.458239
6614,6614,Waters Av @ Arden Av,28.0251,-82.453
6615,6615,Waters Av @ 17th St,28.025219,-82.440921
6622,6622,Waters Ave @ Ashley St,28.025413,-82.461286
6624,6624,Waters Ave @ Otis Ave,28.02539,-82.46575
6625,6625,Waters Av @ N Boulevard,28.025406,-82.467541
6626,6626,Waters Av @ N Boulevard,28.025306,-82.467949
6627,6627,Waters Av @ Otis Av,28.025308,-82.46605
6629,6629,Waters Ave @ Florida Ave,28.025289,-82.459911
6643,6643,Livingston Av @ Campus Lodge Apts,28.089888,-82.430701
6644,6644,Holly Dr @ Health Dr,28.065934,-82.423158
6647,6647,Bruce B Downs Blvd @ 138th Ave,28.072313,-82.425897
6651,6651,Sinclair Hills Rd @ Livingston Av,28.091559,-82.431349
6666,6666,Bearss Av @ Reflections Apts,28.080254,-82.429241
6669,6669,Bruce B Downs Blvd @ 138th Ave,28.07316,-82.426234
6679,6679,15th St @ Bunn Cr,28.067714,-82.442757
6690,6690,Dick Greco Plaza Station #10,27.941498,-82.454879
6691,6691,HSBC Station #9,27.941915,-82.451974
6692,6692,Water Street Station #8,27.943419,-82.448532
6693,6693,The Florida Aquarium Station #7,27.945992,-82.445597
6694,6694,York Street Station #6,27.948156,-82.445324
6695,6695,Port Tampa Bay Station #5,27.951363,-82.445223
6698,6698,Cadrecha Plaza Station #4,27.960683,-82.445507
6699,6699,Streetcar Society Station #3,27.961063,-82.443269
6700,6700,Centro Ybor Station #2,27.961063,-82.441234
6701,6701,Centennial Park Station #1,27.961054,-82.437214
6763,6763,Citrus Park Mall,28.066258,-82.5769
6764,6764,Citrus Park Mall,28.065943,-82.575536
6768,6768,Hillsborough Av @ McKay Av,27.996062,-82.472677
6770,6770,Hillsborough Av @ Beacon Av,27.995782,-82.472627
6771,6771,Hillsborough Av @ Lee Place,27.995846,-82.469557
6781,6781,Hillsborough Loop Dr @ Brown Pelican Ave,27.8561,-82.488621
6820,6820,Gunn @ Mullis City Way (4126RTS),28.042114,-82.511338
6821,6821,Gunn @ Mullis City Way (Tire Plus),28.04211,-82.510906
6832,6832,Zemke Ave @ Boundary Blvd,27.860376,-82.489898
6833,6833,Zemke Ave @ Boundary Blvd,27.860548,-82.49005
6876,6876,Temple Terrace Hwy @ Hamilton Hills,28.03277,-82.361743
6877,6877,56th St @ 127th Ave,28.062118,-82.393488
6891,6891,Waters Ave @ Sheldon Rd,28.025865,-82.581977
6892,6892,56th St @ 127th Ave,28.061211,-82.393806
6898,6898,Florida Ave @ 111th Ave,28.050067,-82.459325
